[
  {
  "latitude": 22.2,
  "longitude": 114.02,
  "name": "香港离岛区(定位)",
  "nameZ": "45001",
  "province": "香港",
  "state": "OK"
}, {
  "latitude": 22.32,
  "longitude": 114.17,
  "name": "九龙",
  "nameZ": "45004",
  "province": "香港",
  "state": "OK"
}, {
  "latitude": 22.3,
  "longitude": 114.17,
  "name": "香港",
  "nameZ": "45005",
  "province": "香港",
  "state": "OK"
}, {
  "latitude": 22.3,
  "longitude": 114.2,
  "name": "香港赤鱲角国际机场",
  "nameZ": "45007",
  "province": "香港",
  "state": "OK"
}, {
  "latitude": 22.4,
  "longitude": 114.3,
  "name": "大帽山",
  "nameZ": "45009",
  "province": "香港",
  "state": "OK"
}, {
  "latitude": 22.15,
  "longitude": 113.53,
  "name": "澳门",
  "nameZ": "45011",
  "province": "澳门",
  "state": "OK"
}, {
  "latitude": 52.13,
  "longitude": 122.37,
  "name": "漠河",
  "nameZ": "50136",
  "province": "黑龙江",
  "state": "OK"
}, {
  "latitude": 52.83,
  "longitude": 123.18,
  "name": "漠河县阿木尔镇(定位)",
  "nameZ": "50204",
  "province": "黑龙江",
  "state": "OK"
}, {
  "latitude": 52.32,
  "longitude": 124.72,
  "name": "塔河",
  "nameZ": "50246",
  "province": "黑龙江",
  "state": "OK"
}, {
  "latitude": 52.05,
  "longitude": 123.67,
  "name": "呼中",
  "nameZ": "50247",
  "province": "黑龙江",
  "state": "OK"
}, {
  "latitude": 51.7,
  "longitude": 124.33,
  "name": "新林",
  "nameZ": "50349",
  "province": "黑龙江",
  "state": "OK"
}, {
  "latitude": 51.72,
  "longitude": 126.65,
  "name": "呼玛",
  "nameZ": "50353",
  "province": "黑龙江",
  "state": "OK"
}, {
  "latitude": 50.25,
  "longitude": 120.18,
  "name": "额尔古纳",
  "nameZ": "50425",
  "province": "内蒙古",
  "state": "OK"
}, {
  "latitude": 50.25,
  "longitude": 120.18,
  "name": "根河",
  "nameZ": "50431",
  "province": "内蒙古",
  "state": "OK"
}, {
  "latitude": 50.48,
  "longitude": 121.68,
  "name": "图里河",
  "nameZ": "50434",
  "province": "内蒙古",
  "state": "OK"
}, {
  "latitude": 50.4,
  "longitude": 124.12,
  "name": "加格达奇",
  "nameZ": "50442",
  "province": "黑龙江",
  "state": "OK"
}, {
  "latitude": 50.58,
  "longitude": 123.73,
  "name": "鄂伦春旗",
  "nameZ": "50445",
  "province": "内蒙古",
  "state": "OK"
}, {
  "latitude": 50.25,
  "longitude": 127.45,
  "name": "黑河",
  "nameZ": "50468",
  "province": "黑龙江",
  "state": "OK"
}, {
  "latitude": 49.57,
  "longitude": 117.43,
  "name": "满洲里",
  "nameZ": "50514",
  "province": "内蒙古",
  "state": "OK"
}, {
  "latitude": 49.32,
  "longitude": 119.43,
  "name": "陈巴尔虎旗",
  "nameZ": "50524",
  "province": "内蒙古",
  "state": "OK"
}, {
  "latitude": 49.15,
  "longitude": 119.75,
  "name": "鄂温克旗",
  "nameZ": "50525",
  "province": "内蒙古",
  "state": "OK"
}, {
  "latitude": 49.28,
  "longitude": 120.7,
  "name": "牙克石",
  "nameZ": "50526",
  "province": "内蒙古",
  "state": "OK"
}, {
  "latitude": 49.25,
  "longitude": 119.75,
  "name": "海拉尔",
  "nameZ": "50527",
  "province": "内蒙古",
  "state": "OK"
}, {
  "latitude": 49.2,
  "longitude": 123.72,
  "name": "小二沟",
  "nameZ": "50548",
  "province": "内蒙古",
  "state": "OK"
}, {
  "latitude": 49.17,
  "longitude": 125.23,
  "name": "嫩江",
  "nameZ": "50557",
  "province": "黑龙江",
  "state": "OK"
}, {
  "latitude": 49.43,
  "longitude": 127.35,
  "name": "孙吴",
  "nameZ": "50564",
  "province": "黑龙江",
  "state": "OK"
}, {
  "latitude": 49.58,
  "longitude": 128.47,
  "name": "逊克",
  "nameZ": "50566",
  "province": "黑龙江",
  "state": "OK"
}, {
  "latitude": 48.67,
  "longitude": 116.82,
  "name": "新巴尔虎右旗",
  "nameZ": "50603",
  "province": "内蒙古",
  "state": "OK"
}, {
  "latitude": 48.22,
  "longitude": 118.27,
  "name": "新巴尔虎左旗",
  "nameZ": "50618",
  "province": "内蒙古",
  "state": "OK"
}, {
  "latitude": 48.77,
  "longitude": 121.92,
  "name": "博克图",
  "nameZ": "50632",
  "province": "内蒙古",
  "state": "OK"
}, {
  "latitude": 48,
  "longitude": 122.73,
  "name": "扎兰屯",
  "nameZ": "50639",
  "province": "内蒙古",
  "state": "OK"
}, {
  "latitude": 48.47,
  "longitude": 124.48,
  "name": "莫力达瓦旗",
  "nameZ": "50645",
  "province": "内蒙古",
  "state": "OK"
}, {
  "latitude": 48.48,
  "longitude": 124.85,
  "name": "讷河",
  "nameZ": "50646",
  "province": "黑龙江",
  "state": "OK"
}, {
  "latitude": 48.12,
  "longitude": 123.48,
  "name": "阿荣旗",
  "nameZ": "50647",
  "province": "内蒙古",
  "state": "OK"
}, {
  "latitude": 48.5,
  "longitude": 126.18,
  "name": "五大连池",
  "nameZ": "50655",
  "province": "黑龙江",
  "state": "OK"
}, {
  "latitude": 48.28,
  "longitude": 126.52,
  "name": "北安",
  "nameZ": "50656",
  "province": "黑龙江",
  "state": "OK"
}, {
  "latitude": 48.05,
  "longitude": 125.88,
  "name": "克山",
  "nameZ": "50658",
  "province": "黑龙江",
  "state": "OK"
}, {
  "latitude": 48.03,
  "longitude": 126.25,
  "name": "克东",
  "nameZ": "50659",
  "province": "黑龙江",
  "state": "OK"
}, {
  "latitude": 48.88,
  "longitude": 130.4,
  "name": "嘉荫",
  "nameZ": "50673",
  "province": "黑龙江",
  "state": "OK"
}, {
  "latitude": 48.57,
  "longitude": 129.43,
  "name": "乌伊岭",
  "nameZ": "50674",
  "province": "黑龙江",
  "state": "OK"
}, {
  "latitude": 47.17,
  "longitude": 119.95,
  "name": "阿尔山",
  "nameZ": "50727",
  "province": "内蒙古",
  "state": "OK"
}, {
  "latitude": 47.33,
  "longitude": 123.18,
  "name": "龙江",
  "nameZ": "50739",
  "province": "黑龙江",
  "state": "OK"
}, {
  "latitude": 47.93,
  "longitude": 123.5,
  "name": "甘南",
  "nameZ": "50741",
  "province": "黑龙江",
  "state": "OK"
}, {
  "latitude": 47.8,
  "longitude": 124.48,
  "name": "富裕",
  "nameZ": "50742",
  "province": "黑龙江",
  "state": "OK"
}, {
  "latitude": 47.38,
  "longitude": 123.92,
  "name": "齐齐哈尔",
  "nameZ": "50745",
  "province": "黑龙江",
  "state": "OK"
}, {
  "latitude": 47.18,
  "longitude": 124.83,
  "name": "林甸",
  "nameZ": "50749",
  "province": "黑龙江",
  "state": "OK"
}, {
  "latitude": 47.9,
  "longitude": 125.3,
  "name": "依安",
  "nameZ": "50750",
  "province": "黑龙江",
  "state": "OK"
}, {
  "latitude": 47.6,
  "longitude": 126.1,
  "name": "拜泉",
  "nameZ": "50755",
  "province": "黑龙江",
  "state": "OK"
}, {
  "latitude": 47.43,
  "longitude": 126.97,
  "name": "海伦",
  "nameZ": "50756",
  "province": "黑龙江",
  "state": "OK"
}, {
  "latitude": 47.17,
  "longitude": 125.9,
  "name": "明水",
  "nameZ": "50758",
  "province": "黑龙江",
  "state": "OK"
}, {
  "latitude": 47.23,
  "longitude": 127.1,
  "name": "绥棱",
  "nameZ": "50767",
  "province": "黑龙江",
  "state": "OK"
}, {
  "latitude": 48.12,
  "longitude": 129.25,
  "name": "五营",
  "nameZ": "50772",
  "province": "黑龙江",
  "state": "OK"
}, {
  "latitude": 47.72,
  "longitude": 128.92,
  "name": "伊春",
  "nameZ": "50774",
  "province": "黑龙江",
  "state": "OK"
}, {
  "latitude": 47.37,
  "longitude": 130.33,
  "name": "鹤岗",
  "nameZ": "50775",
  "province": "黑龙江",
  "state": "OK"
}, {
  "latitude": 47.57,
  "longitude": 130.83,
  "name": "萝北",
  "nameZ": "50776",
  "province": "黑龙江",
  "state": "OK"
}, {
  "latitude": 47.65,
  "longitude": 132.5,
  "name": "同江",
  "nameZ": "50778",
  "province": "黑龙江",
  "state": "OK"
}, {
  "latitude": 48.37,
  "longitude": 134.28,
  "name": "抚远",
  "nameZ": "50779",
  "province": "黑龙江",
  "state": "OK"
}, {
  "latitude": 47.28,
  "longitude": 131.85,
  "name": "绥滨",
  "nameZ": "50787",
  "province": "黑龙江",
  "state": "OK"
}, {
  "latitude": 47.23,
  "longitude": 131.98,
  "name": "富锦",
  "nameZ": "50788",
  "province": "黑龙江",
  "state": "OK"
}, {
  "latitude": 46.72,
  "longitude": 122.08,
  "name": "胡尔勒",
  "nameZ": "50832",
  "province": "内蒙古",
  "state": "OK"
}, {
  "latitude": 46.72,
  "longitude": 122.9,
  "name": "扎赉特旗",
  "nameZ": "50833",
  "province": "内蒙古",
  "state": "OK"
}, {
  "latitude": 46.6,
  "longitude": 121.22,
  "name": "索伦",
  "nameZ": "50834",
  "province": "内蒙古",
  "state": "OK"
}, {
  "latitude": 46.08,
  "longitude": 122.05,
  "name": "乌兰浩特",
  "nameZ": "50838",
  "province": "内蒙古",
  "state": "OK"
}, {
  "latitude": 46.87,
  "longitude": 124.43,
  "name": "杜蒙",
  "nameZ": "50842",
  "province": "黑龙江",
  "state": "OK"
}, {
  "latitude": 46.4,
  "longitude": 123.42,
  "name": "泰来",
  "nameZ": "50844",
  "province": "黑龙江",
  "state": "OK"
}, {
  "latitude": 46.4,
  "longitude": 123.42,
  "name": "大庆",
  "nameZ": "50850",
  "province": "黑龙江",
  "state": "OK"
}, {
  "latitude": 46.68,
  "longitude": 126.1,
  "name": "青冈",
  "nameZ": "50851",
  "province": "黑龙江",
  "state": "OK"
}, {
  "latitude": 46.87,
  "longitude": 126.48,
  "name": "望奎",
  "nameZ": "50852",
  "province": "黑龙江",
  "state": "OK"
}, {
  "latitude": 46.62,
  "longitude": 126.97,
  "name": "绥化",
  "nameZ": "50853",
  "province": "黑龙江",
  "state": "OK"
}, {
  "latitude": 46.38,
  "longitude": 125.32,
  "name": "安达",
  "nameZ": "50854",
  "province": "黑龙江",
  "state": "OK"
}, {
  "latitude": 46.07,
  "longitude": 125.97,
  "name": "肇东",
  "nameZ": "50858",
  "province": "黑龙江",
  "state": "OK"
}, {
  "latitude": 46.25,
  "longitude": 126.27,
  "name": "兰西",
  "nameZ": "50859",
  "province": "黑龙江",
  "state": "OK"
}, {
  "latitude": 46.88,
  "longitude": 127.48,
  "name": "庆安",
  "nameZ": "50861",
  "province": "黑龙江",
  "state": "OK"
}, {
  "latitude": 46.98,
  "longitude": 128.02,
  "name": "铁力",
  "nameZ": "50862",
  "province": "黑龙江",
  "state": "OK"
}, {
  "latitude": 46.08,
  "longitude": 127.35,
  "name": "巴彦",
  "nameZ": "50867",
  "province": "黑龙江",
  "state": "OK"
}, {
  "latitude": 46.73,
  "longitude": 129.88,
  "name": "汤原",
  "nameZ": "50871",
  "province": "黑龙江",
  "state": "OK"
}, {
  "latitude": 46.82,
  "longitude": 130.28,
  "name": "佳木斯",
  "nameZ": "50873",
  "province": "黑龙江",
  "state": "OK"
}, {
  "latitude": 46.3,
  "longitude": 129.58,
  "name": "依兰",
  "nameZ": "50877",
  "province": "黑龙江",
  "state": "OK"
}, {
  "latitude": 47.02,
  "longitude": 130.72,
  "name": "桦川",
  "nameZ": "50878",
  "province": "黑龙江",
  "state": "OK"
}, {
  "latitude": 46.2,
  "longitude": 130.52,
  "name": "桦南",
  "nameZ": "50879",
  "province": "黑龙江",
  "state": "OK"
}, {
  "latitude": 46.72,
  "longitude": 131.13,
  "name": "集贤",
  "nameZ": "50880",
  "province": "黑龙江",
  "state": "OK"
}, {
  "latitude": 46.47,
  "longitude": 131.47,
  "name": "友谊",
  "nameZ": "50881",
  "province": "黑龙江",
  "state": "OK"
}, {
  "latitude": 46.63,
  "longitude": 131.15,
  "name": "双鸭山",
  "nameZ": "50884",
  "province": "黑龙江",
  "state": "OK"
}, {
  "latitude": 46.32,
  "longitude": 132.18,
  "name": "宝清",
  "nameZ": "50888",
  "province": "黑龙江",
  "state": "OK"
}, {
  "latitude": 46.8,
  "longitude": 134,
  "name": "饶河",
  "nameZ": "50892",
  "province": "黑龙江",
  "state": "OK"
}, {
  "latitude": 45.72,
  "longitude": 118.8,
  "name": "乌拉盖",
  "nameZ": "50913",
  "province": "内蒙古",
  "state": "OK"
}, {
  "latitude": 45.52,
  "longitude": 116.97,
  "name": "东乌珠穆沁旗",
  "nameZ": "50915",
  "province": "内蒙古",
  "state": "OK"
}, {
  "latitude": 45.52,
  "longitude": 116.97,
  "name": "霍林郭勒",
  "nameZ": "50924",
  "province": "内蒙古",
  "state": "OK"
}, {
  "latitude": 45.07,
  "longitude": 120.33,
  "name": "巴雅尔吐胡硕",
  "nameZ": "50928",
  "province": "内蒙古",
  "state": "OK"
}, {
  "latitude": 45.4,
  "longitude": 121.55,
  "name": "突泉",
  "nameZ": "50934",
  "province": "内蒙古",
  "state": "OK"
}, {
  "latitude": 45.63,
  "longitude": 122.83,
  "name": "白城",
  "nameZ": "50936",
  "province": "吉林",
  "state": "OK"
}, {
  "latitude": 45.05,
  "longitude": 121.47,
  "name": "科尔沁右翼中旗",
  "nameZ": "50937",
  "province": "内蒙古",
  "state": "OK"
}, {
  "latitude": 45.33,
  "longitude": 122.82,
  "name": "洮南",
  "nameZ": "50939",
  "province": "吉林",
  "state": "OK"
}, {
  "latitude": 45.85,
  "longitude": 123.17,
  "name": "镇赉",
  "nameZ": "50940",
  "province": "吉林",
  "state": "OK"
}, {
  "latitude": 45.5,
  "longitude": 124.27,
  "name": "大安",
  "nameZ": "50945",
  "province": "吉林",
  "state": "OK"
}, {
  "latitude": 45.18,
  "longitude": 124.83,
  "name": "松原",
  "nameZ": "50946",
  "province": "吉林",
  "state": "OK"
}, {
  "latitude": 45,
  "longitude": 124.02,
  "name": "乾安",
  "nameZ": "50948",
  "province": "吉林",
  "state": "OK"
}, {
  "latitude": 45.12,
  "longitude": 124.83,
  "name": "前郭",
  "nameZ": "50949",
  "province": "吉林",
  "state": "OK"
}, {
  "latitude": 45.7,
  "longitude": 125.25,
  "name": "肇州",
  "nameZ": "50950",
  "province": "黑龙江",
  "state": "OK"
}, {
  "latitude": 45.93,
  "longitude": 126.77,
  "name": "哈尔滨",
  "nameZ": "50953",
  "province": "黑龙江",
  "state": "OK"
}, {
  "latitude": 45.5,
  "longitude": 125.08,
  "name": "肇源",
  "nameZ": "50954",
  "province": "黑龙江",
  "state": "OK"
}, {
  "latitude": 45.38,
  "longitude": 126.3,
  "name": "双城",
  "nameZ": "50955",
  "province": "黑龙江",
  "state": "OK"
}, {
  "latitude": 46,
  "longitude": 126.6,
  "name": "呼兰",
  "nameZ": "50956",
  "province": "黑龙江",
  "state": "OK"
}, {
  "latitude": 45.52,
  "longitude": 126.97,
  "name": "阿城",
  "nameZ": "50958",
  "province": "黑龙江",
  "state": "OK"
}, {
  "latitude": 45.78,
  "longitude": 127.45,
  "name": "宾县",
  "nameZ": "50960",
  "province": "黑龙江",
  "state": "OK"
}, {
  "latitude": 45.95,
  "longitude": 128.03,
  "name": "木兰",
  "nameZ": "50962",
  "province": "黑龙江",
  "state": "OK"
}, {
  "latitude": 45.97,
  "longitude": 128.73,
  "name": "通河",
  "nameZ": "50963",
  "province": "黑龙江",
  "state": "OK"
}, {
  "latitude": 45.83,
  "longitude": 128.8,
  "name": "方正",
  "nameZ": "50964",
  "province": "黑龙江",
  "state": "OK"
}, {
  "latitude": 45.45,
  "longitude": 128.3,
  "name": "延寿",
  "nameZ": "50965",
  "province": "黑龙江",
  "state": "OK"
}, {
  "latitude": 45.22,
  "longitude": 127.97,
  "name": "尚志",
  "nameZ": "50968",
  "province": "黑龙江",
  "state": "OK"
}, {
  "latitude": 45.22,
  "longitude": 127.97,
  "name": "七台河",
  "nameZ": "50971",
  "province": "黑龙江",
  "state": "OK"
}, {
  "latitude": 45.75,
  "longitude": 130.58,
  "name": "勃利",
  "nameZ": "50973",
  "province": "黑龙江",
  "state": "OK"
}, {
  "latitude": 45.3,
  "longitude": 130.95,
  "name": "鸡西",
  "nameZ": "50978",
  "province": "黑龙江",
  "state": "OK"
}, {
  "latitude": 45.27,
  "longitude": 130.23,
  "name": "林口",
  "nameZ": "50979",
  "province": "黑龙江",
  "state": "OK"
}, {
  "latitude": 45.77,
  "longitude": 132.97,
  "name": "虎林",
  "nameZ": "50983",
  "province": "黑龙江",
  "state": "OK"
}, {
  "latitude": 45.55,
  "longitude": 131.87,
  "name": "密山",
  "nameZ": "50985",
  "province": "黑龙江",
  "state": "OK"
}, {
  "latitude": 45.25,
  "longitude": 131.13,
  "name": "鸡东",
  "nameZ": "50987",
  "province": "黑龙江",
  "state": "OK"
}, {
  "latitude": 48.05,
  "longitude": 86.4,
  "name": "哈巴河",
  "nameZ": "51053",
  "province": "新疆",
  "state": "OK"
}, {
  "latitude": 48.13,
  "longitude": 85.6,
  "name": "哈巴河县(定位)",
  "nameZ": "51057",
  "province": "新疆",
  "state": "OK"
}, {
  "latitude": 47.1,
  "longitude": 86.62,
  "name": "阿克达拉",
  "nameZ": "51058",
  "province": "新疆",
  "state": "OK"
}, {
  "latitude": 47.43,
  "longitude": 85.87,
  "name": "吉木乃",
  "nameZ": "51059",
  "province": "新疆",
  "state": "OK"
}, {
  "latitude": 47.7,
  "longitude": 86.87,
  "name": "布尔津",
  "nameZ": "51060",
  "province": "新疆",
  "state": "OK"
}, {
  "latitude": 47.12,
  "longitude": 87.47,
  "name": "福海",
  "nameZ": "51068",
  "province": "新疆",
  "state": "OK"
}, {
  "latitude": 47.73,
  "longitude": 88.08,
  "name": "阿勒泰",
  "nameZ": "51076",
  "province": "新疆",
  "state": "OK"
}, {
  "latitude": 46.98,
  "longitude": 89.52,
  "name": "富蕴",
  "nameZ": "51087",
  "province": "新疆",
  "state": "OK"
}, {
  "latitude": 46.73,
  "longitude": 83,
  "name": "塔城",
  "nameZ": "51133",
  "province": "新疆",
  "state": "OK"
}, {
  "latitude": 46.2,
  "longitude": 82.93,
  "name": "裕民",
  "nameZ": "51137",
  "province": "新疆",
  "state": "OK"
}, {
  "latitude": 46.55,
  "longitude": 83.65,
  "name": "额敏",
  "nameZ": "51145",
  "province": "新疆",
  "state": "OK"
}, {
  "latitude": 46.78,
  "longitude": 85.72,
  "name": "和布克赛尔",
  "nameZ": "51156",
  "province": "新疆",
  "state": "OK"
}, {
  "latitude": 46.67,
  "longitude": 90.38,
  "name": "青河",
  "nameZ": "51186",
  "province": "新疆",
  "state": "OK"
}, {
  "latitude": 45.18,
  "longitude": 82.58,
  "name": "阿拉山口",
  "nameZ": "51232",
  "province": "新疆",
  "state": "OK"
}, {
  "latitude": 44.9,
  "longitude": 82.07,
  "name": "博乐",
  "nameZ": "51238",
  "province": "新疆",
  "state": "OK"
}, {
  "latitude": 45.93,
  "longitude": 83.6,
  "name": "托里",
  "nameZ": "51241",
  "province": "新疆",
  "state": "OK"
}, {
  "latitude": 45.62,
  "longitude": 84.85,
  "name": "克拉玛依",
  "nameZ": "51243",
  "province": "新疆",
  "state": "OK"
}, {
  "latitude": 45.37,
  "longitude": 90.53,
  "name": "北塔山",
  "nameZ": "51288",
  "province": "新疆",
  "state": "OK"
}, {
  "latitude": 44.2,
  "longitude": 80.42,
  "name": "霍尔果斯",
  "nameZ": "51328",
  "province": "新疆",
  "state": "OK"
}, {
  "latitude": 44.05,
  "longitude": 80.85,
  "name": "霍城",
  "nameZ": "51329",
  "province": "新疆",
  "state": "OK"
}, {
  "latitude": 44.97,
  "longitude": 81.02,
  "name": "温泉",
  "nameZ": "51330",
  "province": "新疆",
  "state": "OK"
}, {
  "latitude": 44.57,
  "longitude": 82.9,
  "name": "精河",
  "nameZ": "51334",
  "province": "新疆",
  "state": "OK"
}, {
  "latitude": 44.43,
  "longitude": 84.67,
  "name": "乌苏",
  "nameZ": "51346",
  "province": "新疆",
  "state": "OK"
}, {
  "latitude": 44.85,
  "longitude": 85.25,
  "name": "炮台",
  "nameZ": "51352",
  "province": "新疆",
  "state": "OK"
}, {
  "latitude": 45.02,
  "longitude": 86.1,
  "name": "莫索湾",
  "nameZ": "51353",
  "province": "新疆",
  "state": "OK"
}, {
  "latitude": 44.32,
  "longitude": 86.05,
  "name": "石河子",
  "nameZ": "51356",
  "province": "新疆",
  "state": "OK"
}, {
  "latitude": 44.33,
  "longitude": 85.62,
  "name": "沙湾",
  "nameZ": "51357",
  "province": "新疆",
  "state": "OK"
}, {
  "latitude": 44.28,
  "longitude": 85.82,
  "name": "乌兰乌苏",
  "nameZ": "51358",
  "province": "新疆",
  "state": "OK"
}, {
  "latitude": 44.32,
  "longitude": 86.2,
  "name": "玛纳斯",
  "nameZ": "51359",
  "province": "新疆",
  "state": "OK"
}, {
  "latitude": 44.2,
  "longitude": 87.53,
  "name": "蔡家湖",
  "nameZ": "51365",
  "province": "新疆",
  "state": "OK"
}, {
  "latitude": 44.13,
  "longitude": 86.82,
  "name": "呼图壁",
  "nameZ": "51367",
  "province": "新疆",
  "state": "OK"
}, {
  "latitude": 44.02,
  "longitude": 87.43,
  "name": "昌吉",
  "nameZ": "51368",
  "province": "新疆",
  "state": "OK"
}, {
  "latitude": 43.97,
  "longitude": 87.65,
  "name": "米泉",
  "nameZ": "51369",
  "province": "新疆",
  "state": "OK"
}, {
  "latitude": 44.17,
  "longitude": 87.92,
  "name": "阜康",
  "nameZ": "51377",
  "province": "新疆",
  "state": "OK"
}, {
  "latitude": 44.02,
  "longitude": 89.17,
  "name": "吉木萨尔",
  "nameZ": "51378",
  "province": "新疆",
  "state": "OK"
}, {
  "latitude": 44.02,
  "longitude": 89.57,
  "name": "奇台",
  "nameZ": "51379",
  "province": "新疆",
  "state": "OK"
}, {
  "latitude": 43.85,
  "longitude": 81.15,
  "name": "察布查尔",
  "nameZ": "51430",
  "province": "新疆",
  "state": "OK"
}, {
  "latitude": 43.95,
  "longitude": 81.33,
  "name": "伊宁市",
  "nameZ": "51431",
  "province": "新疆",
  "state": "OK"
}, {
  "latitude": 43.8,
  "longitude": 82.57,
  "name": "尼勒克",
  "nameZ": "51433",
  "province": "新疆",
  "state": "OK"
}, {
  "latitude": 43.97,
  "longitude": 81.53,
  "name": "伊宁县",
  "nameZ": "51434",
  "province": "新疆",
  "state": "OK"
}, {
  "latitude": 43.47,
  "longitude": 82.23,
  "name": "巩留",
  "nameZ": "51435",
  "province": "新疆",
  "state": "OK"
}, {
  "latitude": 43.45,
  "longitude": 83.3,
  "name": "新源",
  "nameZ": "51436",
  "province": "新疆",
  "state": "OK"
}, {
  "latitude": 43.15,
  "longitude": 81.13,
  "name": "昭苏",
  "nameZ": "51437",
  "province": "新疆",
  "state": "OK"
}, {
  "latitude": 43.18,
  "longitude": 81.77,
  "name": "特克斯",
  "nameZ": "51438",
  "province": "新疆",
  "state": "OK"
}, {
  "latitude": 43.78,
  "longitude": 87.62,
  "name": "乌鲁木齐",
  "nameZ": "51463",
  "province": "新疆",
  "state": "OK"
}, {
  "latitude": 43.57,
  "longitude": 87.1,
  "name": "小渠子",
  "nameZ": "51465",
  "province": "新疆",
  "state": "OK"
}, {
  "latitude": 42.67,
  "longitude": 86.3,
  "name": "巴仑台",
  "nameZ": "51467",
  "province": "新疆",
  "state": "OK"
}, {
  "latitude": 43.1,
  "longitude": 86.83,
  "name": "天山大西沟",
  "nameZ": "51468",
  "province": "新疆",
  "state": "OK"
}, {
  "latitude": 43.28,
  "longitude": 87.12,
  "name": "乌鲁木齐牧试站",
  "nameZ": "51469",
  "province": "新疆",
  "state": "OK"
}, {
  "latitude": 43.88,
  "longitude": 88.12,
  "name": "天池",
  "nameZ": "51470",
  "province": "新疆",
  "state": "OK"
}, {
  "latitude": 43.35,
  "longitude": 88.32,
  "name": "达坂城",
  "nameZ": "51477",
  "province": "新疆",
  "state": "OK"
}, {
  "latitude": 43.83,
  "longitude": 90.28,
  "name": "木垒",
  "nameZ": "51482",
  "province": "新疆",
  "state": "OK"
}, {
  "latitude": 43.22,
  "longitude": 91.63,
  "name": "十三间房",
  "nameZ": "51495",
  "province": "新疆",
  "state": "OK"
}, {
  "latitude": 42.23,
  "longitude": 88.22,
  "name": "库米什",
  "nameZ": "51526",
  "province": "新疆",
  "state": "OK"
}, {
  "latitude": 43.03,
  "longitude": 84.15,
  "name": "巴音布鲁克",
  "nameZ": "51542",
  "province": "新疆",
  "state": "OK"
}, {
  "latitude": 42.32,
  "longitude": 86.4,
  "name": "和静",
  "nameZ": "51559",
  "province": "新疆",
  "state": "OK"
}, {
  "latitude": 42.08,
  "longitude": 86.57,
  "name": "焉耆",
  "nameZ": "51567",
  "province": "新疆",
  "state": "OK"
}, {
  "latitude": 42.25,
  "longitude": 86.8,
  "name": "和硕",
  "nameZ": "51568",
  "province": "新疆",
  "state": "OK"
}, {
  "latitude": 42.8,
  "longitude": 88.63,
  "name": "托克逊",
  "nameZ": "51571",
  "province": "新疆",
  "state": "OK"
}, {
  "latitude": 42.83,
  "longitude": 89.25,
  "name": "吐鲁番东坎",
  "nameZ": "51572",
  "province": "新疆",
  "state": "OK"
}, {
  "latitude": 42.93,
  "longitude": 89.2,
  "name": "吐鲁番",
  "nameZ": "51573",
  "province": "新疆",
  "state": "OK"
}, {
  "latitude": 42.93,
  "longitude": 89.2,
  "name": "鄯善",
  "nameZ": "51581",
  "province": "新疆",
  "state": "OK"
}, {
  "latitude": 41.22,
  "longitude": 79.23,
  "name": "乌什",
  "nameZ": "51627",
  "province": "新疆",
  "state": "OK"
}, {
  "latitude": 41.17,
  "longitude": 80.23,
  "name": "阿克苏",
  "nameZ": "51628",
  "province": "新疆",
  "state": "OK"
}, {
  "latitude": 41.27,
  "longitude": 80.23,
  "name": "温宿",
  "nameZ": "51629",
  "province": "新疆",
  "state": "OK"
}, {
  "latitude": 41.78,
  "longitude": 81.9,
  "name": "拜城",
  "nameZ": "51633",
  "province": "新疆",
  "state": "OK"
}, {
  "latitude": 41.53,
  "longitude": 82.62,
  "name": "新和",
  "nameZ": "51636",
  "province": "新疆",
  "state": "OK"
}, {
  "latitude": 41.23,
  "longitude": 82.78,
  "name": "沙雅",
  "nameZ": "51639",
  "province": "新疆",
  "state": "OK"
}, {
  "latitude": 41.78,
  "longitude": 84.25,
  "name": "轮台",
  "nameZ": "51642",
  "province": "新疆",
  "state": "OK"
}, {
  "latitude": 41.72,
  "longitude": 83.07,
  "name": "库车",
  "nameZ": "51644",
  "province": "新疆",
  "state": "OK"
}, {
  "latitude": 41.35,
  "longitude": 86.27,
  "name": "尉犁",
  "nameZ": "51655",
  "province": "新疆",
  "state": "OK"
}, {
  "latitude": 41.75,
  "longitude": 86.13,
  "name": "库尔勒",
  "nameZ": "51656",
  "province": "新疆",
  "state": "OK"
}, {
  "latitude": 41.75,
  "longitude": 86.13,
  "name": "博湖",
  "nameZ": "51663",
  "province": "新疆",
  "state": "OK"
}, {
  "latitude": 40.52,
  "longitude": 75.4,
  "name": "吐尔尕特",
  "nameZ": "51701",
  "province": "新疆",
  "state": "OK"
}, {
  "latitude": 39.72,
  "longitude": 76.17,
  "name": "阿图什",
  "nameZ": "51704",
  "province": "新疆",
  "state": "OK"
}, {
  "latitude": 39.72,
  "longitude": 75.25,
  "name": "乌恰",
  "nameZ": "51705",
  "province": "新疆",
  "state": "OK"
}, {
  "latitude": 39.5,
  "longitude": 76.73,
  "name": "伽师",
  "nameZ": "51707",
  "province": "新疆",
  "state": "OK"
}, {
  "latitude": 39.15,
  "longitude": 75.95,
  "name": "阿克陶",
  "nameZ": "51708",
  "province": "新疆",
  "state": "OK"
}, {
  "latitude": 39.48,
  "longitude": 75.98,
  "name": "喀什",
  "nameZ": "51709",
  "province": "新疆",
  "state": "OK"
}, {
  "latitude": 40.93,
  "longitude": 78.45,
  "name": "阿合奇",
  "nameZ": "51711",
  "province": "新疆",
  "state": "OK"
}, {
  "latitude": 39.8,
  "longitude": 78.57,
  "name": "巴楚",
  "nameZ": "51716",
  "province": "新疆",
  "state": "OK"
}, {
  "latitude": 39.25,
  "longitude": 76.78,
  "name": "岳普湖",
  "nameZ": "51717",
  "province": "新疆",
  "state": "OK"
}, {
  "latitude": 40.5,
  "longitude": 79.05,
  "name": "柯坪",
  "nameZ": "51720",
  "province": "新疆",
  "state": "OK"
}, {
  "latitude": 40.65,
  "longitude": 80.4,
  "name": "阿瓦提",
  "nameZ": "51722",
  "province": "新疆",
  "state": "OK"
}, {
  "latitude": 40.5,
  "longitude": 81.05,
  "name": "阿拉尔",
  "nameZ": "51730",
  "province": "新疆",
  "state": "OK"
}, {
  "latitude": 40.5,
  "longitude": 81.05,
  "name": "塔中",
  "nameZ": "51747",
  "province": "新疆",
  "state": "OK"
}, {
  "latitude": 40.63,
  "longitude": 87.7,
  "name": "铁干里克",
  "nameZ": "51765",
  "province": "新疆",
  "state": "OK"
}, {
  "latitude": 39.03,
  "longitude": 88.17,
  "name": "若羌",
  "nameZ": "51777",
  "province": "新疆",
  "state": "OK"
}, {
  "latitude": 38.93,
  "longitude": 76.17,
  "name": "英吉沙",
  "nameZ": "51802",
  "province": "新疆",
  "state": "OK"
}, {
  "latitude": 37.78,
  "longitude": 75.23,
  "name": "塔什库尔干",
  "nameZ": "51804",
  "province": "新疆",
  "state": "OK"
}, {
  "latitude": 38.92,
  "longitude": 77.63,
  "name": "麦盖提",
  "nameZ": "51810",
  "province": "新疆",
  "state": "OK"
}, {
  "latitude": 38.43,
  "longitude": 77.27,
  "name": "莎车",
  "nameZ": "51811",
  "province": "新疆",
  "state": "OK"
}, {
  "latitude": 37.92,
  "longitude": 77.4,
  "name": "叶城",
  "nameZ": "51814",
  "province": "新疆",
  "state": "OK"
}, {
  "latitude": 38.18,
  "longitude": 77.27,
  "name": "泽普",
  "nameZ": "51815",
  "province": "新疆",
  "state": "OK"
}, {
  "latitude": 37.62,
  "longitude": 78.28,
  "name": "皮山",
  "nameZ": "51818",
  "province": "新疆",
  "state": "OK"
}, {
  "latitude": 37.02,
  "longitude": 80.8,
  "name": "策勒",
  "nameZ": "51826",
  "province": "新疆",
  "state": "OK"
}, {
  "latitude": 37.28,
  "longitude": 79.72,
  "name": "墨玉",
  "nameZ": "51827",
  "province": "新疆",
  "state": "OK"
}, {
  "latitude": 37.13,
  "longitude": 79.93,
  "name": "和田",
  "nameZ": "51828",
  "province": "新疆",
  "state": "OK"
}, {
  "latitude": 37.08,
  "longitude": 80.17,
  "name": "洛浦",
  "nameZ": "51829",
  "province": "新疆",
  "state": "OK"
}, {
  "latitude": 37.07,
  "longitude": 82.72,
  "name": "民丰",
  "nameZ": "51839",
  "province": "新疆",
  "state": "OK"
}, {
  "latitude": 37.93,
  "longitude": 83.65,
  "name": "民丰县安迪尔乡(定位)",
  "nameZ": "51848",
  "province": "新疆",
  "state": "OK"
}, {
  "latitude": 38.15,
  "longitude": 85.55,
  "name": "且末",
  "nameZ": "51855",
  "province": "新疆",
  "state": "OK"
}, {
  "latitude": 38.25,
  "longitude": 90.85,
  "name": "茫崖",
  "nameZ": "51886",
  "province": "青海",
  "state": "OK"
}, {
  "latitude": 36.85,
  "longitude": 81.65,
  "name": "于田",
  "nameZ": "51931",
  "province": "新疆",
  "state": "OK"
}, {
  "latitude": 43.6,
  "longitude": 93,
  "name": "巴里坤",
  "nameZ": "52101",
  "province": "新疆",
  "state": "OK"
}, {
  "latitude": 43.6,
  "longitude": 95.13,
  "name": "淖毛湖",
  "nameZ": "52112",
  "province": "新疆",
  "state": "OK"
}, {
  "latitude": 43.27,
  "longitude": 94.7,
  "name": "伊吾",
  "nameZ": "52118",
  "province": "新疆",
  "state": "OK"
}, {
  "latitude": 42.82,
  "longitude": 93.52,
  "name": "哈密",
  "nameZ": "52203",
  "province": "新疆",
  "state": "OK"
}, {
  "latitude": 42.77,
  "longitude": 94.53,
  "name": "沁城",
  "nameZ": "52211",
  "province": "新疆",
  "state": "OK"
}, {
  "latitude": 41.95,
  "longitude": 101.07,
  "name": "额济纳旗",
  "nameZ": "52267",
  "province": "内蒙古",
  "state": "OK"
}, {
  "latitude": 41.53,
  "longitude": 94.67,
  "name": "红柳河",
  "nameZ": "52313",
  "province": "新疆",
  "state": "OK"
}, {
  "latitude": 41.8,
  "longitude": 97.03,
  "name": "马鬃山",
  "nameZ": "52323",
  "province": "甘肃",
  "state": "OK"
}, {
  "latitude": 41.37,
  "longitude": 102.37,
  "name": "拐子湖",
  "nameZ": "52378",
  "province": "内蒙古",
  "state": "OK"
}, {
  "latitude": 40.15,
  "longitude": 94.68,
  "name": "敦煌",
  "nameZ": "52418",
  "province": "甘肃",
  "state": "OK"
}, {
  "latitude": 40.53,
  "longitude": 95.77,
  "name": "瓜州",
  "nameZ": "52424",
  "province": "甘肃",
  "state": "OK"
}, {
  "latitude": 40.27,
  "longitude": 97.03,
  "name": "玉门",
  "nameZ": "52436",
  "province": "甘肃",
  "state": "OK"
}, {
  "latitude": 40.3,
  "longitude": 99.52,
  "name": "鼎新",
  "nameZ": "52446",
  "province": "甘肃",
  "state": "OK"
}, {
  "latitude": 40,
  "longitude": 98.9,
  "name": "金塔",
  "nameZ": "52447",
  "province": "甘肃",
  "state": "OK"
}, {
  "latitude": 40.75,
  "longitude": 104.8,
  "name": "巴彦诺日公",
  "nameZ": "52495",
  "province": "内蒙古",
  "state": "OK"
}, {
  "latitude": 39.52,
  "longitude": 94.88,
  "name": "肃北",
  "nameZ": "52515",
  "province": "甘肃",
  "state": "OK"
}, {
  "latitude": 39.52,
  "longitude": 94.88,
  "name": "嘉峪关",
  "nameZ": "52532",
  "province": "甘肃",
  "state": "OK"
}, {
  "latitude": 39.77,
  "longitude": 98.48,
  "name": "酒泉",
  "nameZ": "52533",
  "province": "甘肃",
  "state": "OK"
}, {
  "latitude": 39.37,
  "longitude": 99.83,
  "name": "高台",
  "nameZ": "52546",
  "province": "甘肃",
  "state": "OK"
}, {
  "latitude": 39.15,
  "longitude": 100.17,
  "name": "临泽",
  "nameZ": "52557",
  "province": "甘肃",
  "state": "OK"
}, {
  "latitude": 39.3,
  "longitude": 102.7,
  "name": "雅布赖",
  "nameZ": "52575",
  "province": "内蒙古",
  "state": "OK"
}, {
  "latitude": 39.22,
  "longitude": 101.68,
  "name": "阿拉善右旗",
  "nameZ": "52576",
  "province": "内蒙古",
  "state": "OK"
}, {
  "latitude": 38.83,
  "longitude": 93.33,
  "name": "冷湖",
  "nameZ": "52602",
  "province": "青海",
  "state": "OK"
}, {
  "latitude": 38.05,
  "longitude": 105.13,
  "name": "乌斯太",
  "nameZ": "52607",
  "province": "内蒙古",
  "state": "OK"
}, {
  "latitude": 38.8,
  "longitude": 98.42,
  "name": "托勒",
  "nameZ": "52633",
  "province": "青海",
  "state": "OK"
}, {
  "latitude": 38.83,
  "longitude": 99.62,
  "name": "肃南",
  "nameZ": "52643",
  "province": "甘肃",
  "state": "OK"
}, {
  "latitude": 38.42,
  "longitude": 99.58,
  "name": "野牛沟",
  "nameZ": "52645",
  "province": "青海",
  "state": "OK"
}, {
  "latitude": 39.08,
  "longitude": 100.43,
  "name": "张掖",
  "nameZ": "52652",
  "province": "甘肃",
  "state": "OK"
}, {
  "latitude": 38.45,
  "longitude": 100.82,
  "name": "民乐",
  "nameZ": "52656",
  "province": "甘肃",
  "state": "OK"
}, {
  "latitude": 38.18,
  "longitude": 100.25,
  "name": "祁连",
  "nameZ": "52657",
  "province": "青海",
  "state": "OK"
}, {
  "latitude": 38.8,
  "longitude": 101.08,
  "name": "山丹",
  "nameZ": "52661",
  "province": "甘肃",
  "state": "OK"
}, {
  "latitude": 38.23,
  "longitude": 101.97,
  "name": "永昌",
  "nameZ": "52674",
  "province": "甘肃",
  "state": "OK"
}, {
  "latitude": 38.53,
  "longitude": 102.2,
  "name": "金昌",
  "nameZ": "52675",
  "province": "甘肃",
  "state": "OK"
}, {
  "latitude": 37.92,
  "longitude": 102.67,
  "name": "武威",
  "nameZ": "52679",
  "province": "甘肃",
  "state": "OK"
}, {
  "latitude": 38.63,
  "longitude": 103.08,
  "name": "民勤",
  "nameZ": "52681",
  "province": "甘肃",
  "state": "OK"
}, {
  "latitude": 36.67,
  "longitude": 93.52,
  "name": "小灶火",
  "nameZ": "52707",
  "province": "青海",
  "state": "OK"
}, {
  "latitude": 37.85,
  "longitude": 95.37,
  "name": "大柴旦",
  "nameZ": "52713",
  "province": "青海",
  "state": "OK"
}, {
  "latitude": 37.85,
  "longitude": 95.37,
  "name": "大柴旦行委柴旦镇(定位)",
  "nameZ": "52717",
  "province": "青海",
  "state": "OK"
}, {
  "latitude": 37.37,
  "longitude": 97.37,
  "name": "德令哈",
  "nameZ": "52737",
  "province": "青海",
  "state": "OK"
}, {
  "latitude": 37.08,
  "longitude": 99.58,
  "name": "共和县石乃亥乡(定位)",
  "nameZ": "52740",
  "province": "青海",
  "state": "OK"
}, {
  "latitude": 37.3,
  "longitude": 99.03,
  "name": "天峻",
  "nameZ": "52745",
  "province": "青海",
  "state": "OK"
}, {
  "latitude": 37.08,
  "longitude": 99.58,
  "name": "共和县石乃亥乡(定位)",
  "nameZ": "52749",
  "province": "青海",
  "state": "OK"
}, {
  "latitude": 37.33,
  "longitude": 100.13,
  "name": "刚察",
  "nameZ": "52754",
  "province": "青海",
  "state": "OK"
}, {
  "latitude": 37.38,
  "longitude": 101.62,
  "name": "门源",
  "nameZ": "52765",
  "province": "青海",
  "state": "OK"
}, {
  "latitude": 37.48,
  "longitude": 102.9,
  "name": "古浪",
  "nameZ": "52784",
  "province": "甘肃",
  "state": "OK"
}, {
  "latitude": 37.2,
  "longitude": 102.87,
  "name": "乌鞘岭",
  "nameZ": "52787",
  "province": "甘肃",
  "state": "OK"
}, {
  "latitude": 37.18,
  "longitude": 104.05,
  "name": "景泰",
  "nameZ": "52797",
  "province": "甘肃",
  "state": "OK"
}, {
  "latitude": 36.8,
  "longitude": 95.3,
  "name": "格尔木市公安局察尔汗分局(定位)",
  "nameZ": "52815",
  "province": "青海",
  "state": "OK"
}, {
  "latitude": 36.42,
  "longitude": 94.9,
  "name": "格尔木",
  "nameZ": "52818",
  "province": "青海",
  "state": "OK"
}, {
  "latitude": 36.43,
  "longitude": 96.42,
  "name": "诺木洪",
  "nameZ": "52825",
  "province": "青海",
  "state": "OK"
}, {
  "latitude": 36.92,
  "longitude": 98.48,
  "name": "乌兰",
  "nameZ": "52833",
  "province": "青海",
  "state": "OK"
}, {
  "latitude": 36.07,
  "longitude": 97.8,
  "name": "都兰县香日德镇(定位)",
  "nameZ": "52835",
  "province": "青海",
  "state": "OK"
}, {
  "latitude": 36.3,
  "longitude": 98.1,
  "name": "都兰",
  "nameZ": "52836",
  "province": "青海",
  "state": "OK"
}, {
  "latitude": 36.78,
  "longitude": 99.08,
  "name": "茶卡",
  "nameZ": "52842",
  "province": "青海",
  "state": "OK"
}, {
  "latitude": 36.92,
  "longitude": 100.98,
  "name": "海晏",
  "nameZ": "52853",
  "province": "青海",
  "state": "OK"
}, {
  "latitude": 36.62,
  "longitude": 100.27,
  "name": "青海湖151",
  "nameZ": "52854",
  "province": "青海",
  "state": "OK"
}, {
  "latitude": 36.68,
  "longitude": 101.23,
  "name": "湟源",
  "nameZ": "52855",
  "province": "青海",
  "state": "OK"
}, {
  "latitude": 36.27,
  "longitude": 100.62,
  "name": "共和",
  "nameZ": "52856",
  "province": "青海",
  "state": "OK"
}, {
  "latitude": 36.95,
  "longitude": 101.68,
  "name": "大通",
  "nameZ": "52862",
  "province": "青海",
  "state": "OK"
}, {
  "latitude": 36.82,
  "longitude": 101.95,
  "name": "互助",
  "nameZ": "52863",
  "province": "青海",
  "state": "OK"
}, {
  "latitude": 36.72,
  "longitude": 101.75,
  "name": "西宁",
  "nameZ": "52866",
  "province": "青海",
  "state": "OK"
}, {
  "latitude": 36.03,
  "longitude": 101.43,
  "name": "贵德",
  "nameZ": "52868",
  "province": "青海",
  "state": "OK"
}, {
  "latitude": 36.52,
  "longitude": 101.57,
  "name": "湟中",
  "nameZ": "52869",
  "province": "青海",
  "state": "OK"
}, {
  "latitude": 36.48,
  "longitude": 102.38,
  "name": "乐都",
  "nameZ": "52874",
  "province": "青海",
  "state": "OK"
}, {
  "latitude": 36.5,
  "longitude": 102.1,
  "name": "平安",
  "nameZ": "52875",
  "province": "青海",
  "state": "OK"
}, {
  "latitude": 36.32,
  "longitude": 102.85,
  "name": "民和",
  "nameZ": "52876",
  "province": "青海",
  "state": "OK"
}, {
  "latitude": 36.1,
  "longitude": 102.27,
  "name": "化隆",
  "nameZ": "52877",
  "province": "青海",
  "state": "OK"
}, {
  "latitude": 36.1,
  "longitude": 102.27,
  "name": "天祝",
  "nameZ": "52881",
  "province": "甘肃",
  "state": "OK"
}, {
  "latitude": 36.1,
  "longitude": 102.27,
  "name": "皋兰",
  "nameZ": "52884",
  "province": "甘肃",
  "state": "OK"
}, {
  "latitude": 36.75,
  "longitude": 103.25,
  "name": "永登",
  "nameZ": "52885",
  "province": "甘肃",
  "state": "OK"
}, {
  "latitude": 36.35,
  "longitude": 103.93,
  "name": "皋兰县石洞镇三川口社区(定位)",
  "nameZ": "52887",
  "province": "甘肃",
  "state": "OK"
}, {
  "latitude": 36.05,
  "longitude": 103.88,
  "name": "兰州",
  "nameZ": "52889",
  "province": "甘肃",
  "state": "OK"
}, {
  "latitude": 36.57,
  "longitude": 104.68,
  "name": "靖远",
  "nameZ": "52895",
  "province": "甘肃",
  "state": "OK"
}, {
  "latitude": 36.55,
  "longitude": 104.18,
  "name": "白银",
  "nameZ": "52896",
  "province": "甘肃",
  "state": "OK"
}, {
  "latitude": 35.22,
  "longitude": 93.08,
  "name": "五道梁",
  "nameZ": "52908",
  "province": "青海",
  "state": "OK"
}, {
  "latitude": 35.88,
  "longitude": 99.98,
  "name": "沙珠玉",
  "nameZ": "52941",
  "province": "青海",
  "state": "OK"
}, {
  "latitude": 35.58,
  "longitude": 99.98,
  "name": "兴海",
  "nameZ": "52943",
  "province": "青海",
  "state": "OK"
}, {
  "latitude": 35.58,
  "longitude": 100.75,
  "name": "贵南",
  "nameZ": "52955",
  "province": "青海",
  "state": "OK"
}, {
  "latitude": 35.27,
  "longitude": 100.65,
  "name": "同德",
  "nameZ": "52957",
  "province": "青海",
  "state": "OK"
}, {
  "latitude": 35.95,
  "longitude": 102.03,
  "name": "尖扎",
  "nameZ": "52963",
  "province": "青海",
  "state": "OK"
}, {
  "latitude": 35.03,
  "longitude": 101.47,
  "name": "泽库",
  "nameZ": "52968",
  "province": "青海",
  "state": "OK"
}, {
  "latitude": 35.83,
  "longitude": 102.55,
  "name": "循化",
  "nameZ": "52972",
  "province": "青海",
  "state": "OK"
}, {
  "latitude": 35.52,
  "longitude": 102.02,
  "name": "同仁",
  "nameZ": "52974",
  "province": "青海",
  "state": "OK"
}, {
  "latitude": 35.2,
  "longitude": 102.52,
  "name": "夏河",
  "nameZ": "52978",
  "province": "甘肃",
  "state": "OK"
}, {
  "latitude": 35.97,
  "longitude": 103.3,
  "name": "永靖",
  "nameZ": "52980",
  "province": "甘肃",
  "state": "OK"
}, {
  "latitude": 35.67,
  "longitude": 103.4,
  "name": "东乡",
  "nameZ": "52981",
  "province": "甘肃",
  "state": "OK"
}, {
  "latitude": 35.48,
  "longitude": 103.57,
  "name": "广河",
  "nameZ": "52982",
  "province": "甘肃",
  "state": "OK"
}, {
  "latitude": 35.87,
  "longitude": 104.15,
  "name": "榆中",
  "nameZ": "52983",
  "province": "甘肃",
  "state": "OK"
}, {
  "latitude": 35.58,
  "longitude": 103.18,
  "name": "临夏",
  "nameZ": "52984",
  "province": "甘肃",
  "state": "OK"
}, {
  "latitude": 35.43,
  "longitude": 103.35,
  "name": "和政",
  "nameZ": "52985",
  "province": "甘肃",
  "state": "OK"
}, {
  "latitude": 35.37,
  "longitude": 103.87,
  "name": "临洮",
  "nameZ": "52986",
  "province": "甘肃",
  "state": "OK"
}, {
  "latitude": 35.37,
  "longitude": 103.72,
  "name": "康乐",
  "nameZ": "52988",
  "province": "甘肃",
  "state": "OK"
}, {
  "latitude": 35.68,
  "longitude": 105.08,
  "name": "会宁",
  "nameZ": "52993",
  "province": "甘肃",
  "state": "OK"
}, {
  "latitude": 35.58,
  "longitude": 104.62,
  "name": "安定",
  "nameZ": "52995",
  "province": "甘肃",
  "state": "OK"
}, {
  "latitude": 35.38,
  "longitude": 105,
  "name": "华家岭",
  "nameZ": "52996",
  "province": "甘肃",
  "state": "OK"
}, {
  "latitude": 35.13,
  "longitude": 104.2,
  "name": "渭源",
  "nameZ": "52998",
  "province": "甘肃",
  "state": "OK"
}, {
  "latitude": 43.65,
  "longitude": 111.97,
  "name": "二连浩特",
  "nameZ": "53068",
  "province": "内蒙古",
  "state": "OK"
}, {
  "latitude": 44.62,
  "longitude": 114.15,
  "name": "那仁宝力格",
  "nameZ": "53083",
  "province": "内蒙古",
  "state": "OK"
}, {
  "latitude": 42.53,
  "longitude": 110.13,
  "name": "满都拉",
  "nameZ": "53149",
  "province": "内蒙古",
  "state": "OK"
}, {
  "latitude": 44.02,
  "longitude": 114.95,
  "name": "阿巴嘎旗",
  "nameZ": "53192",
  "province": "内蒙古",
  "state": "OK"
}, {
  "latitude": 43.37,
  "longitude": 114.4,
  "name": "苏尼特左旗(定位)",
  "nameZ": "53194",
  "province": "内蒙古",
  "state": "OK"
}, {
  "latitude": 43.87,
  "longitude": 113.63,
  "name": "苏尼特左旗",
  "nameZ": "53195",
  "province": "内蒙古",
  "state": "OK"
}, {
  "latitude": 41.4,
  "longitude": 106.4,
  "name": "海力素",
  "nameZ": "53231",
  "province": "内蒙古",
  "state": "OK"
}, {
  "latitude": 42.75,
  "longitude": 112.65,
  "name": "苏尼特右旗",
  "nameZ": "53272",
  "province": "内蒙古",
  "state": "OK"
}, {
  "latitude": 42.4,
  "longitude": 112.9,
  "name": "朱日和",
  "nameZ": "53276",
  "province": "内蒙古",
  "state": "OK"
}, {
  "latitude": 42.23,
  "longitude": 113.83,
  "name": "镶黄旗",
  "nameZ": "53289",
  "province": "内蒙古",
  "state": "OK"
}, {
  "latitude": 41.45,
  "longitude": 106.98,
  "name": "乌拉特后旗",
  "nameZ": "53324",
  "province": "内蒙古",
  "state": "OK"
}, {
  "latitude": 41.57,
  "longitude": 108.52,
  "name": "乌拉特中旗",
  "nameZ": "53336",
  "province": "内蒙古",
  "state": "OK"
}, {
  "latitude": 41.1,
  "longitude": 108.27,
  "name": "五原",
  "nameZ": "53337",
  "province": "内蒙古",
  "state": "OK"
}, {
  "latitude": 41.77,
  "longitude": 109.97,
  "name": "白云鄂博",
  "nameZ": "53343",
  "province": "内蒙古",
  "state": "OK"
}, {
  "latitude": 41.02,
  "longitude": 109.13,
  "name": "大佘太",
  "nameZ": "53348",
  "province": "内蒙古",
  "state": "OK"
}, {
  "latitude": 41.7,
  "longitude": 110.43,
  "name": "达尔罕茂明安联合旗",
  "nameZ": "53352",
  "province": "内蒙古",
  "state": "OK"
}, {
  "latitude": 41.03,
  "longitude": 110.05,
  "name": "固阳",
  "nameZ": "53357",
  "province": "内蒙古",
  "state": "OK"
}, {
  "latitude": 41.53,
  "longitude": 111.68,
  "name": "四子王旗",
  "nameZ": "53362",
  "province": "内蒙古",
  "state": "OK"
}, {
  "latitude": 41.32,
  "longitude": 111.23,
  "name": "希拉穆仁",
  "nameZ": "53367",
  "province": "内蒙古",
  "state": "OK"
}, {
  "latitude": 41.1,
  "longitude": 111.45,
  "name": "武川",
  "nameZ": "53368",
  "province": "内蒙古",
  "state": "OK"
}, {
  "latitude": 41.27,
  "longitude": 112.62,
  "name": "察哈尔右翼中旗",
  "nameZ": "53378",
  "province": "内蒙古",
  "state": "OK"
}, {
  "latitude": 41.45,
  "longitude": 113.18,
  "name": "察哈尔右翼后旗",
  "nameZ": "53384",
  "province": "内蒙古",
  "state": "OK"
}, {
  "latitude": 41.57,
  "longitude": 113.55,
  "name": "商都",
  "nameZ": "53385",
  "province": "内蒙古",
  "state": "OK"
}, {
  "latitude": 41.9,
  "longitude": 114,
  "name": "化德",
  "nameZ": "53391",
  "province": "内蒙古",
  "state": "OK"
}, {
  "latitude": 41.85,
  "longitude": 114.6,
  "name": "康保",
  "nameZ": "53392",
  "province": "河北",
  "state": "OK"
}, {
  "latitude": 41.07,
  "longitude": 113.95,
  "name": "尚义",
  "nameZ": "53397",
  "province": "河北",
  "state": "OK"
}, {
  "latitude": 41.15,
  "longitude": 114.7,
  "name": "张北",
  "nameZ": "53399",
  "province": "河北",
  "state": "OK"
}, {
  "latitude": 40.33,
  "longitude": 107,
  "name": "磴口",
  "nameZ": "53419",
  "province": "内蒙古",
  "state": "OK"
}, {
  "latitude": 40.9,
  "longitude": 107.13,
  "name": "杭锦后旗",
  "nameZ": "53420",
  "province": "内蒙古",
  "state": "OK"
}, {
  "latitude": 40.77,
  "longitude": 107.23,
  "name": "巴彦淖尔市临河区干召庙镇(定位)",
  "nameZ": "53424",
  "province": "内蒙古",
  "state": "OK"
}, {
  "latitude": 40.73,
  "longitude": 108.65,
  "name": "乌拉特前旗",
  "nameZ": "53433",
  "province": "内蒙古",
  "state": "OK"
}, {
  "latitude": 40.73,
  "longitude": 109.85,
  "name": "包头",
  "nameZ": "53446",
  "province": "内蒙古",
  "state": "OK"
}, {
  "latitude": 40.67,
  "longitude": 110.27,
  "name": "包头市石拐区(定位)",
  "nameZ": "53451",
  "province": "内蒙古",
  "state": "OK"
}, {
  "latitude": 40.55,
  "longitude": 110.53,
  "name": "土默特右旗",
  "nameZ": "53455",
  "province": "内蒙古",
  "state": "OK"
}, {
  "latitude": 40.4,
  "longitude": 110.03,
  "name": "达拉特旗",
  "nameZ": "53457",
  "province": "内蒙古",
  "state": "OK"
}, {
  "latitude": 40.85,
  "longitude": 111.68,
  "name": "呼和浩特",
  "nameZ": "53463",
  "province": "内蒙古",
  "state": "OK"
}, {
  "latitude": 40.68,
  "longitude": 111.15,
  "name": "土默特左旗",
  "nameZ": "53464",
  "province": "内蒙古",
  "state": "OK"
}, {
  "latitude": 40.8,
  "longitude": 111.7,
  "name": "赛罕区",
  "nameZ": "53466",
  "province": "内蒙古",
  "state": "OK"
}, {
  "latitude": 40.27,
  "longitude": 111.18,
  "name": "托克托",
  "nameZ": "53467",
  "province": "内蒙古",
  "state": "OK"
}, {
  "latitude": 40.38,
  "longitude": 111.8,
  "name": "和林格尔",
  "nameZ": "53469",
  "province": "内蒙古",
  "state": "OK"
}, {
  "latitude": 40.87,
  "longitude": 112.57,
  "name": "卓资",
  "nameZ": "53472",
  "province": "内蒙古",
  "state": "OK"
}, {
  "latitude": 40.52,
  "longitude": 112.52,
  "name": "凉城",
  "nameZ": "53475",
  "province": "内蒙古",
  "state": "OK"
}, {
  "latitude": 40,
  "longitude": 112.45,
  "name": "右玉",
  "nameZ": "53478",
  "province": "山西",
  "state": "OK"
}, {
  "latitude": 41.03,
  "longitude": 113.07,
  "name": "集宁",
  "nameZ": "53480",
  "province": "内蒙古",
  "state": "OK"
}, {
  "latitude": 40.8,
  "longitude": 113.22,
  "name": "察哈尔右翼前旗",
  "nameZ": "53481",
  "province": "内蒙古",
  "state": "OK"
}, {
  "latitude": 40.88,
  "longitude": 113.87,
  "name": "兴和",
  "nameZ": "53483",
  "province": "内蒙古",
  "state": "OK"
}, {
  "latitude": 40.45,
  "longitude": 113.07,
  "name": "丰镇",
  "nameZ": "53484",
  "province": "内蒙古",
  "state": "OK"
}, {
  "latitude": 40.37,
  "longitude": 113.77,
  "name": "阳高",
  "nameZ": "53486",
  "province": "山西",
  "state": "OK"
}, {
  "latitude": 40.08,
  "longitude": 113.33,
  "name": "大同",
  "nameZ": "53487",
  "province": "山西",
  "state": "OK"
}, {
  "latitude": 40.03,
  "longitude": 113.58,
  "name": "大同县",
  "nameZ": "53488",
  "province": "山西",
  "state": "OK"
}, {
  "latitude": 40.43,
  "longitude": 114.05,
  "name": "天镇",
  "nameZ": "53490",
  "province": "山西",
  "state": "OK"
}, {
  "latitude": 40.68,
  "longitude": 114.4,
  "name": "怀安",
  "nameZ": "53491",
  "province": "河北",
  "state": "OK"
}, {
  "latitude": 40.12,
  "longitude": 114.17,
  "name": "阳原",
  "nameZ": "53492",
  "province": "河北",
  "state": "OK"
}, {
  "latitude": 40.57,
  "longitude": 115.03,
  "name": "宣化",
  "nameZ": "53498",
  "province": "河北",
  "state": "OK"
}, {
  "latitude": 40.77,
  "longitude": 114.73,
  "name": "万全",
  "nameZ": "53499",
  "province": "河北",
  "state": "OK"
}, {
  "latitude": 39.78,
  "longitude": 105.75,
  "name": "吉兰太",
  "nameZ": "53502",
  "province": "内蒙古",
  "state": "OK"
}, {
  "latitude": 39.08,
  "longitude": 105.38,
  "name": "孪井滩",
  "nameZ": "53505",
  "province": "内蒙古",
  "state": "OK"
}, {
  "latitude": 39.68,
  "longitude": 106.8,
  "name": "乌海",
  "nameZ": "53512",
  "province": "内蒙古",
  "state": "OK"
}, {
  "latitude": 40.75,
  "longitude": 107.42,
  "name": "临河",
  "nameZ": "53513",
  "province": "内蒙古",
  "state": "OK"
}, {
  "latitude": 39.27,
  "longitude": 106.33,
  "name": "石炭井",
  "nameZ": "53517",
  "province": "宁夏",
  "state": "OK"
}, {
  "latitude": 39,
  "longitude": 106.37,
  "name": "石嘴山",
  "nameZ": "53518",
  "province": "宁夏",
  "state": "OK"
}, {
  "latitude": 39.22,
  "longitude": 106.77,
  "name": "惠农",
  "nameZ": "53519",
  "province": "宁夏",
  "state": "OK"
}, {
  "latitude": 40.05,
  "longitude": 107.85,
  "name": "伊和乌素",
  "nameZ": "53522",
  "province": "内蒙古",
  "state": "OK"
}, {
  "latitude": 39.1,
  "longitude": 107.98,
  "name": "鄂托克旗",
  "nameZ": "53529",
  "province": "内蒙古",
  "state": "OK"
}, {
  "latitude": 39.85,
  "longitude": 108.73,
  "name": "杭锦旗",
  "nameZ": "53533",
  "province": "内蒙古",
  "state": "OK"
}, {
  "latitude": 39.83,
  "longitude": 109.98,
  "name": "东胜",
  "nameZ": "53543",
  "province": "内蒙古",
  "state": "OK"
}, {
  "latitude": 39.57,
  "longitude": 109.73,
  "name": "伊金霍洛旗",
  "nameZ": "53545",
  "province": "内蒙古",
  "state": "OK"
}, {
  "latitude": 39.1,
  "longitude": 109.03,
  "name": "乌审召",
  "nameZ": "53547",
  "province": "内蒙古",
  "state": "OK"
}, {
  "latitude": 39.67,
  "longitude": 110.87,
  "name": "准格尔旗",
  "nameZ": "53553",
  "province": "内蒙古",
  "state": "OK"
}, {
  "latitude": 39.92,
  "longitude": 111.67,
  "name": "清水河",
  "nameZ": "53562",
  "province": "内蒙古",
  "state": "OK"
}, {
  "latitude": 39.38,
  "longitude": 111.15,
  "name": "河曲",
  "nameZ": "53564",
  "province": "山西",
  "state": "OK"
}, {
  "latitude": 39.43,
  "longitude": 111.5,
  "name": "偏关",
  "nameZ": "53565",
  "province": "山西",
  "state": "OK"
}, {
  "latitude": 39.03,
  "longitude": 111.08,
  "name": "府谷",
  "nameZ": "53567",
  "province": "陕西",
  "state": "OK"
}, {
  "latitude": 40,
  "longitude": 112.7,
  "name": "左云",
  "nameZ": "53573",
  "province": "山西",
  "state": "OK"
}, {
  "latitude": 39.52,
  "longitude": 112.27,
  "name": "平鲁",
  "nameZ": "53574",
  "province": "山西",
  "state": "OK"
}, {
  "latitude": 39.08,
  "longitude": 112.18,
  "name": "神池",
  "nameZ": "53575",
  "province": "山西",
  "state": "OK"
}, {
  "latitude": 39.5,
  "longitude": 112.82,
  "name": "山阴",
  "nameZ": "53576",
  "province": "山西",
  "state": "OK"
}, {
  "latitude": 39,
  "longitude": 112.3,
  "name": "宁武",
  "nameZ": "53577",
  "province": "山西",
  "state": "OK"
}, {
  "latitude": 39.3,
  "longitude": 112.43,
  "name": "朔州",
  "nameZ": "53578",
  "province": "山西",
  "state": "OK"
}, {
  "latitude": 39.02,
  "longitude": 112.9,
  "name": "代县",
  "nameZ": "53579",
  "province": "山西",
  "state": "OK"
}, {
  "latitude": 39.82,
  "longitude": 113.1,
  "name": "怀仁",
  "nameZ": "53580",
  "province": "山西",
  "state": "OK"
}, {
  "latitude": 39.72,
  "longitude": 113.68,
  "name": "浑源",
  "nameZ": "53582",
  "province": "山西",
  "state": "OK"
}, {
  "latitude": 39.57,
  "longitude": 113.17,
  "name": "应县",
  "nameZ": "53584",
  "province": "山西",
  "state": "OK"
}, {
  "latitude": 39.17,
  "longitude": 113.27,
  "name": "繁峙",
  "nameZ": "53585",
  "province": "山西",
  "state": "OK"
}, {
  "latitude": 38.95,
  "longitude": 113.53,
  "name": "五台山",
  "nameZ": "53588",
  "province": "山西",
  "state": "OK"
}, {
  "latitude": 39.75,
  "longitude": 114.27,
  "name": "广灵",
  "nameZ": "53590",
  "province": "山西",
  "state": "OK"
}, {
  "latitude": 39.83,
  "longitude": 114.57,
  "name": "蔚县",
  "nameZ": "53593",
  "province": "河北",
  "state": "OK"
}, {
  "latitude": 39.45,
  "longitude": 114.18,
  "name": "灵丘",
  "nameZ": "53594",
  "province": "山西",
  "state": "OK"
}, {
  "latitude": 38.83,
  "longitude": 115.15,
  "name": "顺平",
  "nameZ": "53596",
  "province": "河北",
  "state": "OK"
}, {
  "latitude": 39.35,
  "longitude": 114.67,
  "name": "涞源",
  "nameZ": "53599",
  "province": "河北",
  "state": "OK"
}, {
  "latitude": 38.83,
  "longitude": 105.67,
  "name": "阿拉善左旗",
  "nameZ": "53602",
  "province": "内蒙古",
  "state": "OK"
}, {
  "latitude": 38.2,
  "longitude": 106.35,
  "name": "贺兰",
  "nameZ": "53610",
  "province": "宁夏",
  "state": "OK"
}, {
  "latitude": 38.9,
  "longitude": 106.55,
  "name": "平罗",
  "nameZ": "53611",
  "province": "宁夏",
  "state": "OK"
}, {
  "latitude": 37.98,
  "longitude": 106.18,
  "name": "吴忠",
  "nameZ": "53612",
  "province": "宁夏",
  "state": "OK"
}, {
  "latitude": 38.48,
  "longitude": 106.22,
  "name": "银川",
  "nameZ": "53614",
  "province": "宁夏",
  "state": "OK"
}, {
  "latitude": 38.8,
  "longitude": 106.7,
  "name": "陶乐",
  "nameZ": "53615",
  "province": "宁夏",
  "state": "OK"
}, {
  "latitude": 38.02,
  "longitude": 106.07,
  "name": "青铜峡",
  "nameZ": "53617",
  "province": "宁夏",
  "state": "OK"
}, {
  "latitude": 38.25,
  "longitude": 106.25,
  "name": "永宁",
  "nameZ": "53618",
  "province": "宁夏",
  "state": "OK"
}, {
  "latitude": 38.12,
  "longitude": 106.3,
  "name": "灵武",
  "nameZ": "53619",
  "province": "宁夏",
  "state": "OK"
}, {
  "latitude": 38.6,
  "longitude": 108.83,
  "name": "乌审旗",
  "nameZ": "53644",
  "province": "内蒙古",
  "state": "OK"
}, {
  "latitude": 38.27,
  "longitude": 109.7,
  "name": "榆林",
  "nameZ": "53646",
  "province": "陕西",
  "state": "OK"
}, {
  "latitude": 38.82,
  "longitude": 110.43,
  "name": "神木",
  "nameZ": "53651",
  "province": "陕西",
  "state": "OK"
}, {
  "latitude": 38.03,
  "longitude": 110.48,
  "name": "佳县",
  "nameZ": "53658",
  "province": "陕西",
  "state": "OK"
}, {
  "latitude": 37.97,
  "longitude": 111,
  "name": "临县",
  "nameZ": "53659",
  "province": "山西",
  "state": "OK"
}, {
  "latitude": 39.02,
  "longitude": 111.08,
  "name": "保德",
  "nameZ": "53660",
  "province": "山西",
  "state": "OK"
}, {
  "latitude": 38.72,
  "longitude": 111.58,
  "name": "岢岚",
  "nameZ": "53662",
  "province": "山西",
  "state": "OK"
}, {
  "latitude": 38.92,
  "longitude": 111.82,
  "name": "五寨",
  "nameZ": "53663",
  "province": "山西",
  "state": "OK"
}, {
  "latitude": 38.47,
  "longitude": 111.13,
  "name": "兴县",
  "nameZ": "53664",
  "province": "山西",
  "state": "OK"
}, {
  "latitude": 38.28,
  "longitude": 111.65,
  "name": "岚县",
  "nameZ": "53665",
  "province": "山西",
  "state": "OK"
}, {
  "latitude": 38.35,
  "longitude": 111.93,
  "name": "静乐",
  "nameZ": "53666",
  "province": "山西",
  "state": "OK"
}, {
  "latitude": 38.07,
  "longitude": 111.78,
  "name": "娄烦",
  "nameZ": "53669",
  "province": "山西",
  "state": "OK"
}, {
  "latitude": 38.73,
  "longitude": 112.72,
  "name": "原平",
  "nameZ": "53673",
  "province": "山西",
  "state": "OK"
}, {
  "latitude": 38.42,
  "longitude": 112.7,
  "name": "忻州",
  "nameZ": "53674",
  "province": "山西",
  "state": "OK"
}, {
  "latitude": 38.5,
  "longitude": 112.98,
  "name": "定襄",
  "nameZ": "53676",
  "province": "山西",
  "state": "OK"
}, {
  "latitude": 37.93,
  "longitude": 112.48,
  "name": "尖草坪",
  "nameZ": "53677",
  "province": "山西",
  "state": "OK"
}, {
  "latitude": 38.07,
  "longitude": 112.67,
  "name": "阳曲",
  "nameZ": "53678",
  "province": "山西",
  "state": "OK"
}, {
  "latitude": 37.73,
  "longitude": 112.55,
  "name": "小店",
  "nameZ": "53679",
  "province": "山西",
  "state": "OK"
}, {
  "latitude": 38.3,
  "longitude": 114.38,
  "name": "灵寿",
  "nameZ": "53680",
  "province": "河北",
  "state": "OK"
}, {
  "latitude": 38.83,
  "longitude": 113.37,
  "name": "五台",
  "nameZ": "53681",
  "province": "山西",
  "state": "OK"
}, {
  "latitude": 38.63,
  "longitude": 114.68,
  "name": "曲阳",
  "nameZ": "53682",
  "province": "河北",
  "state": "OK"
}, {
  "latitude": 38.07,
  "longitude": 113.42,
  "name": "盂县",
  "nameZ": "53685",
  "province": "山西",
  "state": "OK"
}, {
  "latitude": 37.78,
  "longitude": 113.63,
  "name": "平定",
  "nameZ": "53687",
  "province": "山西",
  "state": "OK"
}, {
  "latitude": 38.45,
  "longitude": 114.55,
  "name": "行唐",
  "nameZ": "53688",
  "province": "河北",
  "state": "OK"
}, {
  "latitude": 38.02,
  "longitude": 115.07,
  "name": "晋州",
  "nameZ": "53689",
  "province": "河北",
  "state": "OK"
}, {
  "latitude": 38.85,
  "longitude": 114.18,
  "name": "阜平",
  "nameZ": "53690",
  "province": "河北",
  "state": "OK"
}, {
  "latitude": 38.15,
  "longitude": 114.57,
  "name": "正定",
  "nameZ": "53691",
  "province": "河北",
  "state": "OK"
}, {
  "latitude": 38.73,
  "longitude": 114.98,
  "name": "唐县",
  "nameZ": "53692",
  "province": "河北",
  "state": "OK"
}, {
  "latitude": 38.03,
  "longitude": 114.13,
  "name": "井陉",
  "nameZ": "53693",
  "province": "河北",
  "state": "OK"
}, {
  "latitude": 38.25,
  "longitude": 114.2,
  "name": "平山",
  "nameZ": "53694",
  "province": "河北",
  "state": "OK"
}, {
  "latitude": 38.35,
  "longitude": 114.68,
  "name": "新乐",
  "nameZ": "53695",
  "province": "河北",
  "state": "OK"
}, {
  "latitude": 38.52,
  "longitude": 115,
  "name": "定州",
  "nameZ": "53696",
  "province": "河北",
  "state": "OK"
}, {
  "latitude": 38.02,
  "longitude": 114.83,
  "name": "藁城",
  "nameZ": "53697",
  "province": "河北",
  "state": "OK"
}, {
  "latitude": 38.07,
  "longitude": 114.42,
  "name": "石家庄",
  "nameZ": "53698",
  "province": "河北",
  "state": "OK"
}, {
  "latitude": 38.2,
  "longitude": 114.97,
  "name": "无极",
  "nameZ": "53699",
  "province": "河北",
  "state": "OK"
}, {
  "latitude": 37.53,
  "longitude": 105.18,
  "name": "中卫",
  "nameZ": "53704",
  "province": "宁夏",
  "state": "OK"
}, {
  "latitude": 37.48,
  "longitude": 105.67,
  "name": "中宁",
  "nameZ": "53705",
  "province": "宁夏",
  "state": "OK"
}, {
  "latitude": 37.8,
  "longitude": 107.4,
  "name": "盐池",
  "nameZ": "53723",
  "province": "宁夏",
  "state": "OK"
}, {
  "latitude": 37.58,
  "longitude": 107.58,
  "name": "定边",
  "nameZ": "53725",
  "province": "陕西",
  "state": "OK"
}, {
  "latitude": 37.17,
  "longitude": 107.12,
  "name": "麻黄山",
  "nameZ": "53727",
  "province": "宁夏",
  "state": "OK"
}, {
  "latitude": 38.18,
  "longitude": 107.48,
  "name": "鄂托克前旗",
  "nameZ": "53730",
  "province": "内蒙古",
  "state": "OK"
}, {
  "latitude": 37.85,
  "longitude": 108.72,
  "name": "河南",
  "nameZ": "53732",
  "province": "内蒙古",
  "state": "OK"
}, {
  "latitude": 37.62,
  "longitude": 108.8,
  "name": "靖边",
  "nameZ": "53735",
  "province": "陕西",
  "state": "OK"
}, {
  "latitude": 36.92,
  "longitude": 108.17,
  "name": "吴起",
  "nameZ": "53738",
  "province": "陕西",
  "state": "OK"
}, {
  "latitude": 37.93,
  "longitude": 109.23,
  "name": "横山",
  "nameZ": "53740",
  "province": "陕西",
  "state": "OK"
}, {
  "latitude": 37.18,
  "longitude": 109.7,
  "name": "子长",
  "nameZ": "53748",
  "province": "陕西",
  "state": "OK"
}, {
  "latitude": 37.77,
  "longitude": 110.17,
  "name": "米脂",
  "nameZ": "53750",
  "province": "陕西",
  "state": "OK"
}, {
  "latitude": 37.6,
  "longitude": 110.05,
  "name": "子洲",
  "nameZ": "53751",
  "province": "陕西",
  "state": "OK"
}, {
  "latitude": 37.43,
  "longitude": 110.88,
  "name": "柳林",
  "nameZ": "53753",
  "province": "山西",
  "state": "OK"
}, {
  "latitude": 37.5,
  "longitude": 110.22,
  "name": "绥德",
  "nameZ": "53754",
  "province": "陕西",
  "state": "OK"
}, {
  "latitude": 37.52,
  "longitude": 110.72,
  "name": "吴堡",
  "nameZ": "53756",
  "province": "陕西",
  "state": "OK"
}, {
  "latitude": 37.12,
  "longitude": 110.12,
  "name": "清涧",
  "nameZ": "53757",
  "province": "陕西",
  "state": "OK"
}, {
  "latitude": 36.98,
  "longitude": 110.83,
  "name": "石楼",
  "nameZ": "53759",
  "province": "山西",
  "state": "OK"
}, {
  "latitude": 37.88,
  "longitude": 111.23,
  "name": "方山",
  "nameZ": "53760",
  "province": "山西",
  "state": "OK"
}, {
  "latitude": 37.92,
  "longitude": 112.17,
  "name": "古交",
  "nameZ": "53763",
  "province": "山西",
  "state": "OK"
}, {
  "latitude": 37.5,
  "longitude": 111.1,
  "name": "吕梁",
  "nameZ": "53764",
  "province": "山西",
  "state": "OK"
}, {
  "latitude": 37.33,
  "longitude": 111.17,
  "name": "中阳",
  "nameZ": "53767",
  "province": "山西",
  "state": "OK"
}, {
  "latitude": 37.15,
  "longitude": 111.75,
  "name": "孝义",
  "nameZ": "53768",
  "province": "山西",
  "state": "OK"
}, {
  "latitude": 37.25,
  "longitude": 111.78,
  "name": "汾阳",
  "nameZ": "53769",
  "province": "山西",
  "state": "OK"
}, {
  "latitude": 37.35,
  "longitude": 112.35,
  "name": "祁县",
  "nameZ": "53770",
  "province": "山西",
  "state": "OK"
}, {
  "latitude": 37.45,
  "longitude": 112.05,
  "name": "文水",
  "nameZ": "53771",
  "province": "山西",
  "state": "OK"
}, {
  "latitude": 37.78,
  "longitude": 112.55,
  "name": "太原",
  "nameZ": "53772",
  "province": "山西",
  "state": "OK"
}, {
  "latitude": 36.33,
  "longitude": 114.62,
  "name": "临漳",
  "nameZ": "53773",
  "province": "河北",
  "state": "OK"
}, {
  "latitude": 37.62,
  "longitude": 112.33,
  "name": "清徐",
  "nameZ": "53774",
  "province": "山西",
  "state": "OK"
}, {
  "latitude": 37.43,
  "longitude": 112.53,
  "name": "太谷",
  "nameZ": "53775",
  "province": "山西",
  "state": "OK"
}, {
  "latitude": 37.68,
  "longitude": 112.77,
  "name": "晋中",
  "nameZ": "53776",
  "province": "山西",
  "state": "OK"
}, {
  "latitude": 37.53,
  "longitude": 112.15,
  "name": "交城",
  "nameZ": "53777",
  "province": "山西",
  "state": "OK"
}, {
  "latitude": 37.18,
  "longitude": 112.22,
  "name": "平遥",
  "nameZ": "53778",
  "province": "山西",
  "state": "OK"
}, {
  "latitude": 37.9,
  "longitude": 113.17,
  "name": "寿阳",
  "nameZ": "53780",
  "province": "山西",
  "state": "OK"
}, {
  "latitude": 36.87,
  "longitude": 114.47,
  "name": "沙河",
  "nameZ": "53781",
  "province": "河北",
  "state": "OK"
}, {
  "latitude": 37.85,
  "longitude": 113.55,
  "name": "阳泉",
  "nameZ": "53782",
  "province": "山西",
  "state": "OK"
}, {
  "latitude": 37.6,
  "longitude": 113.7,
  "name": "昔阳",
  "nameZ": "53783",
  "province": "山西",
  "state": "OK"
}, {
  "latitude": 37.77,
  "longitude": 114.73,
  "name": "赵县",
  "nameZ": "53784",
  "province": "河北",
  "state": "OK"
}, {
  "latitude": 37.5,
  "longitude": 114.68,
  "name": "柏乡",
  "nameZ": "53785",
  "province": "河北",
  "state": "OK"
}, {
  "latitude": 37.08,
  "longitude": 113.37,
  "name": "左权",
  "nameZ": "53786",
  "province": "山西",
  "state": "OK"
}, {
  "latitude": 37.07,
  "longitude": 112.98,
  "name": "榆社",
  "nameZ": "53787",
  "province": "山西",
  "state": "OK"
}, {
  "latitude": 37.33,
  "longitude": 113.57,
  "name": "和顺",
  "nameZ": "53788",
  "province": "山西",
  "state": "OK"
}, {
  "latitude": 37.88,
  "longitude": 114.63,
  "name": "栾城",
  "nameZ": "53789",
  "province": "河北",
  "state": "OK"
}, {
  "latitude": 37.6,
  "longitude": 114.62,
  "name": "高邑",
  "nameZ": "53790",
  "province": "河北",
  "state": "OK"
}, {
  "latitude": 37.75,
  "longitude": 114.53,
  "name": "元氏",
  "nameZ": "53791",
  "province": "河北",
  "state": "OK"
}, {
  "latitude": 37.45,
  "longitude": 114.38,
  "name": "临城",
  "nameZ": "53792",
  "province": "河北",
  "state": "OK"
}, {
  "latitude": 37.17,
  "longitude": 113.95,
  "name": "浆水",
  "nameZ": "53793",
  "province": "河北",
  "state": "OK"
}, {
  "latitude": 37.35,
  "longitude": 114.75,
  "name": "隆尧",
  "nameZ": "53794",
  "province": "河北",
  "state": "OK"
}, {
  "latitude": 37.65,
  "longitude": 114.37,
  "name": "赞皇",
  "nameZ": "53795",
  "province": "河北",
  "state": "OK"
}, {
  "latitude": 37.62,
  "longitude": 114.88,
  "name": "宁晋",
  "nameZ": "53796",
  "province": "河北",
  "state": "OK"
}, {
  "latitude": 37.28,
  "longitude": 114.5,
  "name": "内丘",
  "nameZ": "53797",
  "province": "河北",
  "state": "OK"
}, {
  "latitude": 37.07,
  "longitude": 114.5,
  "name": "邢台",
  "nameZ": "53798",
  "province": "河北",
  "state": "OK"
}, {
  "latitude": 37.22,
  "longitude": 115.03,
  "name": "巨鹿",
  "nameZ": "53799",
  "province": "河北",
  "state": "OK"
}, {
  "latitude": 36.57,
  "longitude": 105.65,
  "name": "海原",
  "nameZ": "53806",
  "province": "宁夏",
  "state": "OK"
}, {
  "latitude": 36.98,
  "longitude": 105.9,
  "name": "同心",
  "nameZ": "53810",
  "province": "宁夏",
  "state": "OK"
}, {
  "latitude": 36,
  "longitude": 106.27,
  "name": "固原",
  "nameZ": "53817",
  "province": "宁夏",
  "state": "OK"
}, {
  "latitude": 36.58,
  "longitude": 107.3,
  "name": "环县",
  "nameZ": "53821",
  "province": "甘肃",
  "state": "OK"
}, {
  "latitude": 35.98,
  "longitude": 107.9,
  "name": "庆城",
  "nameZ": "53829",
  "province": "甘肃",
  "state": "OK"
}, {
  "latitude": 36.77,
  "longitude": 108.77,
  "name": "志丹",
  "nameZ": "53832",
  "province": "陕西",
  "state": "OK"
}, {
  "latitude": 37.13,
  "longitude": 114.7,
  "name": "邢台市任县任城镇(定位)",
  "nameZ": "53833",
  "province": "河北",
  "state": "OK"
}, {
  "latitude": 36.88,
  "longitude": 109.32,
  "name": "安塞",
  "nameZ": "53841",
  "province": "陕西",
  "state": "OK"
}, {
  "latitude": 36.58,
  "longitude": 109.5,
  "name": "延安",
  "nameZ": "53845",
  "province": "陕西",
  "state": "OK"
}, {
  "latitude": 36.27,
  "longitude": 109.35,
  "name": "甘泉",
  "nameZ": "53848",
  "province": "陕西",
  "state": "OK"
}, {
  "latitude": 36.88,
  "longitude": 110.18,
  "name": "延川",
  "nameZ": "53850",
  "province": "陕西",
  "state": "OK"
}, {
  "latitude": 36.77,
  "longitude": 110.63,
  "name": "永和",
  "nameZ": "53852",
  "province": "山西",
  "state": "OK"
}, {
  "latitude": 36.7,
  "longitude": 110.95,
  "name": "隰县",
  "nameZ": "53853",
  "province": "山西",
  "state": "OK"
}, {
  "latitude": 36.58,
  "longitude": 110.07,
  "name": "延长",
  "nameZ": "53854",
  "province": "陕西",
  "state": "OK"
}, {
  "latitude": 36.47,
  "longitude": 110.75,
  "name": "大宁",
  "nameZ": "53856",
  "province": "山西",
  "state": "OK"
}, {
  "latitude": 36.07,
  "longitude": 110.18,
  "name": "宜川",
  "nameZ": "53857",
  "province": "陕西",
  "state": "OK"
}, {
  "latitude": 36.1,
  "longitude": 110.68,
  "name": "吉县",
  "nameZ": "53859",
  "province": "山西",
  "state": "OK"
}, {
  "latitude": 36.98,
  "longitude": 111.17,
  "name": "交口",
  "nameZ": "53860",
  "province": "山西",
  "state": "OK"
}, {
  "latitude": 35.88,
  "longitude": 111.42,
  "name": "襄汾",
  "nameZ": "53861",
  "province": "山西",
  "state": "OK"
}, {
  "latitude": 36.85,
  "longitude": 111.8,
  "name": "灵石",
  "nameZ": "53862",
  "province": "山西",
  "state": "OK"
}, {
  "latitude": 37.03,
  "longitude": 111.92,
  "name": "介休",
  "nameZ": "53863",
  "province": "山西",
  "state": "OK"
}, {
  "latitude": 36.4,
  "longitude": 111.1,
  "name": "蒲县",
  "nameZ": "53864",
  "province": "山西",
  "state": "OK"
}, {
  "latitude": 36.65,
  "longitude": 111.55,
  "name": "汾西",
  "nameZ": "53865",
  "province": "山西",
  "state": "OK"
}, {
  "latitude": 36.23,
  "longitude": 111.67,
  "name": "洪洞",
  "nameZ": "53866",
  "province": "山西",
  "state": "OK"
}, {
  "latitude": 36.07,
  "longitude": 111.5,
  "name": "临汾",
  "nameZ": "53868",
  "province": "山西",
  "state": "OK"
}, {
  "latitude": 36.58,
  "longitude": 111.72,
  "name": "霍州",
  "nameZ": "53869",
  "province": "山西",
  "state": "OK"
}, {
  "latitude": 36.83,
  "longitude": 112.85,
  "name": "武乡",
  "nameZ": "53871",
  "province": "山西",
  "state": "OK"
}, {
  "latitude": 36.77,
  "longitude": 112.68,
  "name": "沁县",
  "nameZ": "53872",
  "province": "山西",
  "state": "OK"
}, {
  "latitude": 36.12,
  "longitude": 112.87,
  "name": "长子",
  "nameZ": "53873",
  "province": "山西",
  "state": "OK"
}, {
  "latitude": 36.27,
  "longitude": 111.92,
  "name": "古县",
  "nameZ": "53874",
  "province": "山西",
  "state": "OK"
}, {
  "latitude": 36.52,
  "longitude": 112.35,
  "name": "沁源",
  "nameZ": "53875",
  "province": "山西",
  "state": "OK"
}, {
  "latitude": 36.17,
  "longitude": 112.25,
  "name": "安泽",
  "nameZ": "53877",
  "province": "山西",
  "state": "OK"
}, {
  "latitude": 36.52,
  "longitude": 113.38,
  "name": "黎城",
  "nameZ": "53878",
  "province": "山西",
  "state": "OK"
}, {
  "latitude": 36.32,
  "longitude": 112.88,
  "name": "屯留",
  "nameZ": "53879",
  "province": "山西",
  "state": "OK"
}, {
  "latitude": 36.33,
  "longitude": 113.23,
  "name": "潞城",
  "nameZ": "53880",
  "province": "山西",
  "state": "OK"
}, {
  "latitude": 37.28,
  "longitude": 106.48,
  "name": "韦州",
  "nameZ": "53881",
  "province": "宁夏",
  "state": "OK"
}, {
  "latitude": 36.05,
  "longitude": 113.07,
  "name": "长治",
  "nameZ": "53882",
  "province": "山西",
  "state": "OK"
}, {
  "latitude": 36.05,
  "longitude": 113.07,
  "name": "任县",
  "nameZ": "53883",
  "province": "河北",
  "state": "OK"
}, {
  "latitude": 36.52,
  "longitude": 113.03,
  "name": "襄垣",
  "nameZ": "53884",
  "province": "山西",
  "state": "OK"
}, {
  "latitude": 36.13,
  "longitude": 113.2,
  "name": "壶关",
  "nameZ": "53885",
  "province": "山西",
  "state": "OK"
}, {
  "latitude": 36.57,
  "longitude": 113.67,
  "name": "涉县",
  "nameZ": "53886",
  "province": "河北",
  "state": "OK"
}, {
  "latitude": 36.2,
  "longitude": 113.43,
  "name": "平顺",
  "nameZ": "53888",
  "province": "山西",
  "state": "OK"
}, {
  "latitude": 36.07,
  "longitude": 113.82,
  "name": "林州",
  "nameZ": "53889",
  "province": "河南",
  "state": "OK"
}, {
  "latitude": 36.72,
  "longitude": 114.2,
  "name": "武安",
  "nameZ": "53890",
  "province": "河北",
  "state": "OK"
}, {
  "latitude": 37,
  "longitude": 114.68,
  "name": "南和",
  "nameZ": "53891",
  "province": "河北",
  "state": "OK"
}, {
  "latitude": 36.6,
  "longitude": 114.5,
  "name": "邯郸",
  "nameZ": "53892",
  "province": "河北",
  "state": "OK"
}, {
  "latitude": 36.77,
  "longitude": 114.95,
  "name": "曲周",
  "nameZ": "53893",
  "province": "河北",
  "state": "OK"
}, {
  "latitude": 36.42,
  "longitude": 114.22,
  "name": "峰峰",
  "nameZ": "53894",
  "province": "河北",
  "state": "OK"
}, {
  "latitude": 36.77,
  "longitude": 114.6,
  "name": "永年",
  "nameZ": "53895",
  "province": "河北",
  "state": "OK"
}, {
  "latitude": 36.35,
  "longitude": 114.95,
  "name": "魏县",
  "nameZ": "53896",
  "province": "河北",
  "state": "OK"
}, {
  "latitude": 36.38,
  "longitude": 114.38,
  "name": "磁县",
  "nameZ": "53897",
  "province": "河北",
  "state": "OK"
}, {
  "latitude": 36.05,
  "longitude": 114.37,
  "name": "安阳",
  "nameZ": "53898",
  "province": "河南",
  "state": "OK"
}, {
  "latitude": 36.48,
  "longitude": 114.97,
  "name": "广平",
  "nameZ": "53899",
  "province": "河北",
  "state": "OK"
}, {
  "latitude": 35.97,
  "longitude": 105.72,
  "name": "西吉",
  "nameZ": "53903",
  "province": "宁夏",
  "state": "OK"
}, {
  "latitude": 35.52,
  "longitude": 105.72,
  "name": "静宁",
  "nameZ": "53906",
  "province": "甘肃",
  "state": "OK"
}, {
  "latitude": 35.22,
  "longitude": 105.23,
  "name": "通渭",
  "nameZ": "53908",
  "province": "甘肃",
  "state": "OK"
}, {
  "latitude": 35.67,
  "longitude": 106.2,
  "name": "六盘山",
  "nameZ": "53910",
  "province": "宁夏",
  "state": "OK"
}, {
  "latitude": 35.67,
  "longitude": 106.2,
  "name": "彭阳",
  "nameZ": "53913",
  "province": "宁夏",
  "state": "OK"
}, {
  "latitude": 35.62,
  "longitude": 106.12,
  "name": "隆德",
  "nameZ": "53914",
  "province": "宁夏",
  "state": "OK"
}, {
  "latitude": 35.55,
  "longitude": 106.67,
  "name": "崆峒",
  "nameZ": "53915",
  "province": "甘肃",
  "state": "OK"
}, {
  "latitude": 35.5,
  "longitude": 106.32,
  "name": "泾源",
  "nameZ": "53916",
  "province": "宁夏",
  "state": "OK"
}, {
  "latitude": 35.22,
  "longitude": 106.05,
  "name": "庄浪",
  "nameZ": "53917",
  "province": "甘肃",
  "state": "OK"
}, {
  "latitude": 35.73,
  "longitude": 107.63,
  "name": "西峰",
  "nameZ": "53923",
  "province": "甘肃",
  "state": "OK"
}, {
  "latitude": 35.15,
  "longitude": 107.4,
  "name": "灵台",
  "nameZ": "53924",
  "province": "甘肃",
  "state": "OK"
}, {
  "latitude": 35.68,
  "longitude": 107.18,
  "name": "镇原",
  "nameZ": "53925",
  "province": "甘肃",
  "state": "OK"
}, {
  "latitude": 35.33,
  "longitude": 107.35,
  "name": "泾川",
  "nameZ": "53926",
  "province": "甘肃",
  "state": "OK"
}, {
  "latitude": 35.22,
  "longitude": 106.63,
  "name": "华亭",
  "nameZ": "53927",
  "province": "甘肃",
  "state": "OK"
}, {
  "latitude": 35.3,
  "longitude": 107.02,
  "name": "崇信",
  "nameZ": "53928",
  "province": "甘肃",
  "state": "OK"
}, {
  "latitude": 35.2,
  "longitude": 107.8,
  "name": "长武",
  "nameZ": "53929",
  "province": "陕西",
  "state": "OK"
}, {
  "latitude": 36.45,
  "longitude": 107.98,
  "name": "华池",
  "nameZ": "53930",
  "province": "甘肃",
  "state": "OK"
}, {
  "latitude": 36,
  "longitude": 109.38,
  "name": "富县",
  "nameZ": "53931",
  "province": "陕西",
  "state": "OK"
}, {
  "latitude": 35.82,
  "longitude": 108.02,
  "name": "合水",
  "nameZ": "53934",
  "province": "甘肃",
  "state": "OK"
}, {
  "latitude": 35.5,
  "longitude": 108.35,
  "name": "正宁",
  "nameZ": "53935",
  "province": "甘肃",
  "state": "OK"
}, {
  "latitude": 35.42,
  "longitude": 108,
  "name": "宁县",
  "nameZ": "53937",
  "province": "甘肃",
  "state": "OK"
}, {
  "latitude": 35.17,
  "longitude": 108.3,
  "name": "旬邑",
  "nameZ": "53938",
  "province": "陕西",
  "state": "OK"
}, {
  "latitude": 35.18,
  "longitude": 109.58,
  "name": "白水",
  "nameZ": "53941",
  "province": "陕西",
  "state": "OK"
}, {
  "latitude": 35.82,
  "longitude": 109.5,
  "name": "洛川",
  "nameZ": "53942",
  "province": "陕西",
  "state": "OK"
}, {
  "latitude": 35.55,
  "longitude": 109.32,
  "name": "黄陵",
  "nameZ": "53944",
  "province": "陕西",
  "state": "OK"
}, {
  "latitude": 35.43,
  "longitude": 109.07,
  "name": "宜君",
  "nameZ": "53945",
  "province": "陕西",
  "state": "OK"
}, {
  "latitude": 35.6,
  "longitude": 109.82,
  "name": "黄龙",
  "nameZ": "53946",
  "province": "陕西",
  "state": "OK"
}, {
  "latitude": 35.08,
  "longitude": 109.07,
  "name": "王益",
  "nameZ": "53947",
  "province": "陕西",
  "state": "OK"
}, {
  "latitude": 34.95,
  "longitude": 109.58,
  "name": "蒲城",
  "nameZ": "53948",
  "province": "陕西",
  "state": "OK"
}, {
  "latitude": 35.18,
  "longitude": 109.92,
  "name": "澄城",
  "nameZ": "53949",
  "province": "陕西",
  "state": "OK"
}, {
  "latitude": 35.23,
  "longitude": 110.15,
  "name": "合阳",
  "nameZ": "53950",
  "province": "陕西",
  "state": "OK"
}, {
  "latitude": 35.97,
  "longitude": 110.85,
  "name": "乡宁",
  "nameZ": "53953",
  "province": "山西",
  "state": "OK"
}, {
  "latitude": 35.58,
  "longitude": 110.95,
  "name": "稷山",
  "nameZ": "53954",
  "province": "山西",
  "state": "OK"
}, {
  "latitude": 35.47,
  "longitude": 110.45,
  "name": "韩城",
  "nameZ": "53955",
  "province": "陕西",
  "state": "OK"
}, {
  "latitude": 35.4,
  "longitude": 110.83,
  "name": "万荣",
  "nameZ": "53956",
  "province": "山西",
  "state": "OK"
}, {
  "latitude": 35.62,
  "longitude": 110.72,
  "name": "河津",
  "nameZ": "53957",
  "province": "山西",
  "state": "OK"
}, {
  "latitude": 35.15,
  "longitude": 110.72,
  "name": "临猗",
  "nameZ": "53958",
  "province": "山西",
  "state": "OK"
}, {
  "latitude": 35.05,
  "longitude": 111.02,
  "name": "运城",
  "nameZ": "53959",
  "province": "山西",
  "state": "OK"
}, {
  "latitude": 35.65,
  "longitude": 111.48,
  "name": "曲沃",
  "nameZ": "53961",
  "province": "山西",
  "state": "OK"
}, {
  "latitude": 35.73,
  "longitude": 111.7,
  "name": "翼城",
  "nameZ": "53962",
  "province": "山西",
  "state": "OK"
}, {
  "latitude": 35.65,
  "longitude": 111.37,
  "name": "侯马",
  "nameZ": "53963",
  "province": "山西",
  "state": "OK"
}, {
  "latitude": 35.62,
  "longitude": 111.22,
  "name": "新绛",
  "nameZ": "53964",
  "province": "山西",
  "state": "OK"
}, {
  "latitude": 35.52,
  "longitude": 111.57,
  "name": "绛县",
  "nameZ": "53965",
  "province": "山西",
  "state": "OK"
}, {
  "latitude": 35.98,
  "longitude": 111.83,
  "name": "浮山",
  "nameZ": "53966",
  "province": "山西",
  "state": "OK"
}, {
  "latitude": 35.33,
  "longitude": 111.2,
  "name": "闻喜",
  "nameZ": "53967",
  "province": "山西",
  "state": "OK"
}, {
  "latitude": 35.17,
  "longitude": 111.8,
  "name": "垣曲",
  "nameZ": "53968",
  "province": "山西",
  "state": "OK"
}, {
  "latitude": 35.7,
  "longitude": 112.18,
  "name": "沁水",
  "nameZ": "53970",
  "province": "山西",
  "state": "OK"
}, {
  "latitude": 35.12,
  "longitude": 112.92,
  "name": "沁阳",
  "nameZ": "53972",
  "province": "河南",
  "state": "OK"
}, {
  "latitude": 35.78,
  "longitude": 112.92,
  "name": "高平",
  "nameZ": "53973",
  "province": "山西",
  "state": "OK"
}, {
  "latitude": 35.62,
  "longitude": 114.18,
  "name": "淇县",
  "nameZ": "53974",
  "province": "河南",
  "state": "OK"
}, {
  "latitude": 35.48,
  "longitude": 112.4,
  "name": "阳城",
  "nameZ": "53975",
  "province": "山西",
  "state": "OK"
}, {
  "latitude": 35.52,
  "longitude": 112.83,
  "name": "晋城",
  "nameZ": "53976",
  "province": "山西",
  "state": "OK"
}, {
  "latitude": 35.08,
  "longitude": 112.63,
  "name": "济源",
  "nameZ": "53978",
  "province": "河南",
  "state": "OK"
}, {
  "latitude": 35.18,
  "longitude": 113.05,
  "name": "博爱",
  "nameZ": "53979",
  "province": "河南",
  "state": "OK"
}, {
  "latitude": 36.55,
  "longitude": 114.8,
  "name": "肥乡",
  "nameZ": "53980",
  "province": "河北",
  "state": "OK"
}, {
  "latitude": 35.78,
  "longitude": 113.27,
  "name": "陵川",
  "nameZ": "53981",
  "province": "山西",
  "state": "OK"
}, {
  "latitude": 35.23,
  "longitude": 113.27,
  "name": "焦作",
  "nameZ": "53982",
  "province": "河南",
  "state": "OK"
}, {
  "latitude": 35.03,
  "longitude": 114.42,
  "name": "封丘",
  "nameZ": "53983",
  "province": "河南",
  "state": "OK"
}, {
  "latitude": 35.23,
  "longitude": 113.42,
  "name": "修武",
  "nameZ": "53984",
  "province": "河南",
  "state": "OK"
}, {
  "latitude": 35.45,
  "longitude": 113.82,
  "name": "辉县",
  "nameZ": "53985",
  "province": "河南",
  "state": "OK"
}, {
  "latitude": 35.32,
  "longitude": 113.88,
  "name": "新乡",
  "nameZ": "53986",
  "province": "河南",
  "state": "OK"
}, {
  "latitude": 35.1,
  "longitude": 113.4,
  "name": "武陟",
  "nameZ": "53987",
  "province": "河南",
  "state": "OK"
}, {
  "latitude": 35.27,
  "longitude": 113.67,
  "name": "获嘉",
  "nameZ": "53988",
  "province": "河南",
  "state": "OK"
}, {
  "latitude": 35.05,
  "longitude": 113.95,
  "name": "原阳",
  "nameZ": "53989",
  "province": "河南",
  "state": "OK"
}, {
  "latitude": 35.9,
  "longitude": 114.17,
  "name": "鹤壁",
  "nameZ": "53990",
  "province": "河南",
  "state": "OK"
}, {
  "latitude": 35.93,
  "longitude": 114.35,
  "name": "汤阴",
  "nameZ": "53991",
  "province": "河南",
  "state": "OK"
}, {
  "latitude": 35.68,
  "longitude": 114.55,
  "name": "浚县",
  "nameZ": "53992",
  "province": "河南",
  "state": "OK"
}, {
  "latitude": 35.93,
  "longitude": 114.92,
  "name": "内黄",
  "nameZ": "53993",
  "province": "河南",
  "state": "OK"
}, {
  "latitude": 35.38,
  "longitude": 114.07,
  "name": "卫辉",
  "nameZ": "53994",
  "province": "河南",
  "state": "OK"
}, {
  "latitude": 35.58,
  "longitude": 114.5,
  "name": "滑县",
  "nameZ": "53995",
  "province": "河南",
  "state": "OK"
}, {
  "latitude": 36.45,
  "longitude": 114.7,
  "name": "成安",
  "nameZ": "53996",
  "province": "河北",
  "state": "OK"
}, {
  "latitude": 35.15,
  "longitude": 114.18,
  "name": "延津",
  "nameZ": "53997",
  "province": "河南",
  "state": "OK"
}, {
  "latitude": 35.2,
  "longitude": 114.65,
  "name": "长垣",
  "nameZ": "53998",
  "province": "河南",
  "state": "OK"
}, {
  "latitude": 44.72,
  "longitude": 115.12,
  "name": "伊和高勒",
  "nameZ": "54001",
  "province": "内蒙古",
  "state": "OK"
}, {
  "latitude": 44.83,
  "longitude": 116.37,
  "name": "朝克乌拉",
  "nameZ": "54010",
  "province": "内蒙古",
  "state": "OK"
}, {
  "latitude": 44.58,
  "longitude": 117.6,
  "name": "西乌珠穆沁旗",
  "nameZ": "54012",
  "province": "内蒙古",
  "state": "OK"
}, {
  "latitude": 44.45,
  "longitude": 119.3,
  "name": "富河",
  "nameZ": "54024",
  "province": "内蒙古",
  "state": "OK"
}, {
  "latitude": 44.57,
  "longitude": 120.9,
  "name": "扎鲁特旗",
  "nameZ": "54026",
  "province": "内蒙古",
  "state": "OK"
}, {
  "latitude": 43.98,
  "longitude": 119.4,
  "name": "巴林左旗",
  "nameZ": "54027",
  "province": "内蒙古",
  "state": "OK"
}, {
  "latitude": 44.88,
  "longitude": 121.82,
  "name": "高力板",
  "nameZ": "54031",
  "province": "内蒙古",
  "state": "OK"
}, {
  "latitude": 44.03,
  "longitude": 122.02,
  "name": "舍伯吐",
  "nameZ": "54039",
  "province": "内蒙古",
  "state": "OK"
}, {
  "latitude": 44.78,
  "longitude": 123.07,
  "name": "通榆",
  "nameZ": "54041",
  "province": "吉林",
  "state": "OK"
}, {
  "latitude": 44.13,
  "longitude": 123.3,
  "name": "科尔沁左翼中旗",
  "nameZ": "54047",
  "province": "内蒙古",
  "state": "OK"
}, {
  "latitude": 44.25,
  "longitude": 123.97,
  "name": "长岭",
  "nameZ": "54049",
  "province": "吉林",
  "state": "OK"
}, {
  "latitude": 44.97,
  "longitude": 126,
  "name": "扶余",
  "nameZ": "54063",
  "province": "吉林",
  "state": "OK"
}, {
  "latitude": 44.42,
  "longitude": 125.17,
  "name": "农安",
  "nameZ": "54064",
  "province": "吉林",
  "state": "OK"
}, {
  "latitude": 44.53,
  "longitude": 125.67,
  "name": "德惠",
  "nameZ": "54065",
  "province": "吉林",
  "state": "OK"
}, {
  "latitude": 44.17,
  "longitude": 125.8,
  "name": "九台",
  "nameZ": "54069",
  "province": "吉林",
  "state": "OK"
}, {
  "latitude": 44.83,
  "longitude": 126.53,
  "name": "榆树",
  "nameZ": "54072",
  "province": "吉林",
  "state": "OK"
}, {
  "latitude": 37.37,
  "longitude": 115.38,
  "name": "邢台市南宫市凤岗街道(定位)",
  "nameZ": "54075",
  "province": "河北",
  "state": "OK"
}, {
  "latitude": 44.42,
  "longitude": 126.93,
  "name": "舒兰",
  "nameZ": "54076",
  "province": "吉林",
  "state": "OK"
}, {
  "latitude": 44.9,
  "longitude": 127.15,
  "name": "五常",
  "nameZ": "54080",
  "province": "黑龙江",
  "state": "OK"
}, {
  "latitude": 44.58,
  "longitude": 129.4,
  "name": "海林",
  "nameZ": "54092",
  "province": "黑龙江",
  "state": "OK"
}, {
  "latitude": 44.93,
  "longitude": 130.55,
  "name": "穆棱",
  "nameZ": "54093",
  "province": "黑龙江",
  "state": "OK"
}, {
  "latitude": 44.5,
  "longitude": 129.6,
  "name": "牡丹江",
  "nameZ": "54094",
  "province": "黑龙江",
  "state": "OK"
}, {
  "latitude": 44.38,
  "longitude": 131.15,
  "name": "绥芬河",
  "nameZ": "54096",
  "province": "黑龙江",
  "state": "OK"
}, {
  "latitude": 44.33,
  "longitude": 129.47,
  "name": "宁安",
  "nameZ": "54098",
  "province": "黑龙江",
  "state": "OK"
}, {
  "latitude": 44.1,
  "longitude": 131.18,
  "name": "东宁",
  "nameZ": "54099",
  "province": "黑龙江",
  "state": "OK"
}, {
  "latitude": 43.95,
  "longitude": 116.07,
  "name": "锡林浩特",
  "nameZ": "54102",
  "province": "内蒙古",
  "state": "OK"
}, {
  "latitude": 43.73,
  "longitude": 122.53,
  "name": "通辽市科尔沁区钱家店镇(定位)",
  "nameZ": "54103",
  "province": "内蒙古",
  "state": "OK"
}, {
  "latitude": 43.53,
  "longitude": 118.65,
  "name": "巴林右旗",
  "nameZ": "54113",
  "province": "内蒙古",
  "state": "OK"
}, {
  "latitude": 43.63,
  "longitude": 118.07,
  "name": "林西",
  "nameZ": "54115",
  "province": "内蒙古",
  "state": "OK"
}, {
  "latitude": 43.25,
  "longitude": 117.53,
  "name": "克什克腾旗",
  "nameZ": "54117",
  "province": "内蒙古",
  "state": "OK"
}, {
  "latitude": 43.88,
  "longitude": 120.05,
  "name": "阿鲁科尔沁旗",
  "nameZ": "54122",
  "province": "内蒙古",
  "state": "OK"
}, {
  "latitude": 42.4,
  "longitude": 121.07,
  "name": "青龙山",
  "nameZ": "54132",
  "province": "内蒙古",
  "state": "OK"
}, {
  "latitude": 43.6,
  "longitude": 121.28,
  "name": "开鲁",
  "nameZ": "54134",
  "province": "内蒙古",
  "state": "OK"
}, {
  "latitude": 43.6,
  "longitude": 122.27,
  "name": "通辽",
  "nameZ": "54135",
  "province": "内蒙古",
  "state": "OK"
}, {
  "latitude": 43.5,
  "longitude": 123.53,
  "name": "双辽",
  "nameZ": "54142",
  "province": "吉林",
  "state": "OK"
}, {
  "latitude": 43.35,
  "longitude": 124.3,
  "name": "梨树",
  "nameZ": "54154",
  "province": "吉林",
  "state": "OK"
}, {
  "latitude": 43.67,
  "longitude": 124.23,
  "name": "孤家子",
  "nameZ": "54155",
  "province": "吉林",
  "state": "OK"
}, {
  "latitude": 43.52,
  "longitude": 124.8,
  "name": "公主岭",
  "nameZ": "54156",
  "province": "吉林",
  "state": "OK"
}, {
  "latitude": 43.18,
  "longitude": 124.33,
  "name": "四平",
  "nameZ": "54157",
  "province": "吉林",
  "state": "OK"
}, {
  "latitude": 43.9,
  "longitude": 125.22,
  "name": "长春",
  "nameZ": "54161",
  "province": "吉林",
  "state": "OK"
}, {
  "latitude": 43.35,
  "longitude": 125.28,
  "name": "伊通",
  "nameZ": "54164",
  "province": "吉林",
  "state": "OK"
}, {
  "latitude": 43.5,
  "longitude": 125.65,
  "name": "双阳",
  "nameZ": "54165",
  "province": "吉林",
  "state": "OK"
}, {
  "latitude": 43.3,
  "longitude": 126.02,
  "name": "烟筒山",
  "nameZ": "54169",
  "province": "吉林",
  "state": "OK"
}, {
  "latitude": 43.7,
  "longitude": 126.52,
  "name": "永吉",
  "nameZ": "54171",
  "province": "吉林",
  "state": "OK"
}, {
  "latitude": 43.95,
  "longitude": 127.13,
  "name": "吉林",
  "nameZ": "54172",
  "province": "吉林",
  "state": "OK"
}, {
  "latitude": 43.7,
  "longitude": 127.33,
  "name": "蛟河",
  "nameZ": "54181",
  "province": "吉林",
  "state": "OK"
}, {
  "latitude": 43.37,
  "longitude": 128.2,
  "name": "敦化",
  "nameZ": "54186",
  "province": "吉林",
  "state": "OK"
}, {
  "latitude": 43.12,
  "longitude": 128.92,
  "name": "安图",
  "nameZ": "54187",
  "province": "吉林",
  "state": "OK"
}, {
  "latitude": 43.7,
  "longitude": 130.25,
  "name": "罗子沟",
  "nameZ": "54192",
  "province": "吉林",
  "state": "OK"
}, {
  "latitude": 43.33,
  "longitude": 129.77,
  "name": "汪清",
  "nameZ": "54195",
  "province": "吉林",
  "state": "OK"
}, {
  "latitude": 42.87,
  "longitude": 115.8,
  "name": "那日图",
  "nameZ": "54201",
  "province": "内蒙古",
  "state": "OK"
}, {
  "latitude": 42.3,
  "longitude": 115,
  "name": "正镶白旗",
  "nameZ": "54204",
  "province": "内蒙古",
  "state": "OK"
}, {
  "latitude": 42.25,
  "longitude": 115.98,
  "name": "正蓝旗",
  "nameZ": "54205",
  "province": "内蒙古",
  "state": "OK"
}, {
  "latitude": 42.18,
  "longitude": 116.47,
  "name": "多伦",
  "nameZ": "54208",
  "province": "内蒙古",
  "state": "OK"
}, {
  "latitude": 42.27,
  "longitude": 117.08,
  "name": "承德市围场县御道口牧场(定位)",
  "nameZ": "54209",
  "province": "河北",
  "state": "OK"
}, {
  "latitude": 42.95,
  "longitude": 119.03,
  "name": "翁牛特旗",
  "nameZ": "54213",
  "province": "内蒙古",
  "state": "OK"
}, {
  "latitude": 42.58,
  "longitude": 118.42,
  "name": "岗子",
  "nameZ": "54214",
  "province": "内蒙古",
  "state": "OK"
}, {
  "latitude": 42.3,
  "longitude": 118.97,
  "name": "赤峰",
  "nameZ": "54218",
  "province": "内蒙古",
  "state": "OK"
}, {
  "latitude": 42.27,
  "longitude": 118.93,
  "name": "赤峰市松山区振兴街道(定位)",
  "nameZ": "54219",
  "province": "内蒙古",
  "state": "OK"
}, {
  "latitude": 42.85,
  "longitude": 120.65,
  "name": "奈曼旗",
  "nameZ": "54223",
  "province": "内蒙古",
  "state": "OK"
}, {
  "latitude": 42.28,
  "longitude": 119.92,
  "name": "敖汉旗",
  "nameZ": "54225",
  "province": "内蒙古",
  "state": "OK"
}, {
  "latitude": 42.33,
  "longitude": 120.7,
  "name": "宝国图",
  "nameZ": "54226",
  "province": "内蒙古",
  "state": "OK"
}, {
  "latitude": 42.97,
  "longitude": 122.35,
  "name": "科尔沁左翼后旗",
  "nameZ": "54231",
  "province": "内蒙古",
  "state": "OK"
}, {
  "latitude": 42.73,
  "longitude": 121.78,
  "name": "库伦旗",
  "nameZ": "54234",
  "province": "内蒙古",
  "state": "OK"
}, {
  "latitude": 42.42,
  "longitude": 122.53,
  "name": "彰武",
  "nameZ": "54236",
  "province": "辽宁",
  "state": "OK"
}, {
  "latitude": 42.03,
  "longitude": 121.65,
  "name": "阜新",
  "nameZ": "54237",
  "province": "辽宁",
  "state": "OK"
}, {
  "latitude": 42.78,
  "longitude": 124.12,
  "name": "昌图",
  "nameZ": "54243",
  "province": "辽宁",
  "state": "OK"
}, {
  "latitude": 42.75,
  "longitude": 123.33,
  "name": "康平",
  "nameZ": "54244",
  "province": "辽宁",
  "state": "OK"
}, {
  "latitude": 42.5,
  "longitude": 123.4,
  "name": "法库",
  "nameZ": "54245",
  "province": "辽宁",
  "state": "OK"
}, {
  "latitude": 41.8,
  "longitude": 123.25,
  "name": "沈阳市于洪区于洪街道和平村(定位)",
  "nameZ": "54247",
  "province": "辽宁",
  "state": "OK"
}, {
  "latitude": 42.03,
  "longitude": 123.53,
  "name": "沈北新区",
  "nameZ": "54248",
  "province": "辽宁",
  "state": "OK"
}, {
  "latitude": 42.3,
  "longitude": 123.87,
  "name": "铁岭",
  "nameZ": "54249",
  "province": "辽宁",
  "state": "OK"
}, {
  "latitude": 42.73,
  "longitude": 124.75,
  "name": "西丰",
  "nameZ": "54252",
  "province": "辽宁",
  "state": "OK"
}, {
  "latitude": 42.53,
  "longitude": 124.05,
  "name": "开原",
  "nameZ": "54254",
  "province": "辽宁",
  "state": "OK"
}, {
  "latitude": 42.07,
  "longitude": 124.92,
  "name": "清原",
  "nameZ": "54259",
  "province": "辽宁",
  "state": "OK"
}, {
  "latitude": 42.92,
  "longitude": 125.08,
  "name": "辽源",
  "nameZ": "54260",
  "province": "吉林",
  "state": "OK"
}, {
  "latitude": 42.68,
  "longitude": 125.45,
  "name": "东丰",
  "nameZ": "54261",
  "province": "吉林",
  "state": "OK"
}, {
  "latitude": 42.95,
  "longitude": 126.05,
  "name": "磐石",
  "nameZ": "54263",
  "province": "吉林",
  "state": "OK"
}, {
  "latitude": 42.53,
  "longitude": 125.63,
  "name": "梅河口",
  "nameZ": "54266",
  "province": "吉林",
  "state": "OK"
}, {
  "latitude": 42.25,
  "longitude": 125.73,
  "name": "柳河",
  "nameZ": "54267",
  "province": "吉林",
  "state": "OK"
}, {
  "latitude": 42.98,
  "longitude": 126.75,
  "name": "桦甸",
  "nameZ": "54273",
  "province": "吉林",
  "state": "OK"
}, {
  "latitude": 42.68,
  "longitude": 126.07,
  "name": "辉南",
  "nameZ": "54274",
  "province": "吉林",
  "state": "OK"
}, {
  "latitude": 42.35,
  "longitude": 126.82,
  "name": "靖宇",
  "nameZ": "54276",
  "province": "吉林",
  "state": "OK"
}, {
  "latitude": 42.1,
  "longitude": 127.57,
  "name": "东岗",
  "nameZ": "54284",
  "province": "吉林",
  "state": "OK"
}, {
  "latitude": 42.53,
  "longitude": 128.25,
  "name": "二道",
  "nameZ": "54285",
  "province": "吉林",
  "state": "OK"
}, {
  "latitude": 42.53,
  "longitude": 129,
  "name": "和龙",
  "nameZ": "54286",
  "province": "吉林",
  "state": "OK"
}, {
  "latitude": 42.02,
  "longitude": 128.08,
  "name": "天池",
  "nameZ": "54287",
  "province": "吉林",
  "state": "OK"
}, {
  "latitude": 42.77,
  "longitude": 129.4,
  "name": "龙井",
  "nameZ": "54290",
  "province": "吉林",
  "state": "OK"
}, {
  "latitude": 42.9,
  "longitude": 130.28,
  "name": "珲春",
  "nameZ": "54291",
  "province": "吉林",
  "state": "OK"
}, {
  "latitude": 42.87,
  "longitude": 129.47,
  "name": "延吉",
  "nameZ": "54292",
  "province": "吉林",
  "state": "OK"
}, {
  "latitude": 42.95,
  "longitude": 129.83,
  "name": "图们",
  "nameZ": "54293",
  "province": "吉林",
  "state": "OK"
}, {
  "latitude": 41.67,
  "longitude": 115.7,
  "name": "沽源",
  "nameZ": "54301",
  "province": "河北",
  "state": "OK"
}, {
  "latitude": 40.97,
  "longitude": 115.28,
  "name": "崇礼",
  "nameZ": "54304",
  "province": "河北",
  "state": "OK"
}, {
  "latitude": 41.88,
  "longitude": 115.27,
  "name": "太仆寺旗",
  "nameZ": "54305",
  "province": "内蒙古",
  "state": "OK"
}, {
  "latitude": 41.2,
  "longitude": 116.63,
  "name": "丰宁",
  "nameZ": "54308",
  "province": "河北",
  "state": "OK"
}, {
  "latitude": 41.93,
  "longitude": 117.75,
  "name": "围场",
  "nameZ": "54311",
  "province": "河北",
  "state": "OK"
}, {
  "latitude": 41.93,
  "longitude": 118.7,
  "name": "喀喇沁旗",
  "nameZ": "54313",
  "province": "内蒙古",
  "state": "OK"
}, {
  "latitude": 41.52,
  "longitude": 118.75,
  "name": "八里罕",
  "nameZ": "54316",
  "province": "内蒙古",
  "state": "OK"
}, {
  "latitude": 41.82,
  "longitude": 117.72,
  "name": "隆化",
  "nameZ": "54318",
  "province": "河北",
  "state": "OK"
}, {
  "latitude": 41,
  "longitude": 118.67,
  "name": "平泉",
  "nameZ": "54319",
  "province": "河北",
  "state": "OK"
}, {
  "latitude": 41.6,
  "longitude": 119.35,
  "name": "宁城",
  "nameZ": "54320",
  "province": "内蒙古",
  "state": "OK"
}, {
  "latitude": 41.87,
  "longitude": 119.63,
  "name": "建平镇",
  "nameZ": "54321",
  "province": "辽宁",
  "state": "OK"
}, {
  "latitude": 41.82,
  "longitude": 120.75,
  "name": "北票",
  "nameZ": "54323",
  "province": "辽宁",
  "state": "OK"
}, {
  "latitude": 41.55,
  "longitude": 120.45,
  "name": "朝阳",
  "nameZ": "54324",
  "province": "辽宁",
  "state": "OK"
}, {
  "latitude": 41.18,
  "longitude": 120.35,
  "name": "羊山",
  "nameZ": "54325",
  "province": "辽宁",
  "state": "OK"
}, {
  "latitude": 41.38,
  "longitude": 119.7,
  "name": "建平",
  "nameZ": "54326",
  "province": "辽宁",
  "state": "OK"
}, {
  "latitude": 41.23,
  "longitude": 119.35,
  "name": "凌源",
  "nameZ": "54327",
  "province": "辽宁",
  "state": "OK"
}, {
  "latitude": 41.08,
  "longitude": 119.72,
  "name": "喀左",
  "nameZ": "54328",
  "province": "辽宁",
  "state": "OK"
}, {
  "latitude": 41.32,
  "longitude": 121.37,
  "name": "凌海",
  "nameZ": "54330",
  "province": "辽宁",
  "state": "OK"
}, {
  "latitude": 41.58,
  "longitude": 121.77,
  "name": "北镇",
  "nameZ": "54331",
  "province": "辽宁",
  "state": "OK"
}, {
  "latitude": 41.52,
  "longitude": 122.72,
  "name": "辽中",
  "nameZ": "54332",
  "province": "辽宁",
  "state": "OK"
}, {
  "latitude": 41.98,
  "longitude": 122.83,
  "name": "新民",
  "nameZ": "54333",
  "province": "辽宁",
  "state": "OK"
}, {
  "latitude": 41.52,
  "longitude": 121.23,
  "name": "义县",
  "nameZ": "54334",
  "province": "辽宁",
  "state": "OK"
}, {
  "latitude": 41.68,
  "longitude": 122.08,
  "name": "黑山",
  "nameZ": "54335",
  "province": "辽宁",
  "state": "OK"
}, {
  "latitude": 41.38,
  "longitude": 122.43,
  "name": "台安",
  "nameZ": "54336",
  "province": "辽宁",
  "state": "OK"
}, {
  "latitude": 41.13,
  "longitude": 121.12,
  "name": "锦州",
  "nameZ": "54337",
  "province": "辽宁",
  "state": "OK"
}, {
  "latitude": 41.18,
  "longitude": 122.02,
  "name": "盘山",
  "nameZ": "54338",
  "province": "辽宁",
  "state": "OK"
}, {
  "latitude": 41.08,
  "longitude": 123,
  "name": "鞍山",
  "nameZ": "54339",
  "province": "辽宁",
  "state": "OK"
}, {
  "latitude": 41.65,
  "longitude": 123.32,
  "name": "苏家屯",
  "nameZ": "54340",
  "province": "辽宁",
  "state": "OK"
}, {
  "latitude": 41.73,
  "longitude": 123.07,
  "name": "沈阳",
  "nameZ": "54342",
  "province": "辽宁",
  "state": "OK"
}, {
  "latitude": 41.2,
  "longitude": 123.07,
  "name": "辽阳县",
  "nameZ": "54345",
  "province": "辽宁",
  "state": "OK"
}, {
  "latitude": 41.32,
  "longitude": 123.78,
  "name": "本溪",
  "nameZ": "54346",
  "province": "辽宁",
  "state": "OK"
}, {
  "latitude": 41.23,
  "longitude": 123.17,
  "name": "辽阳",
  "nameZ": "54347",
  "province": "辽宁",
  "state": "OK"
}, {
  "latitude": 41.42,
  "longitude": 123.32,
  "name": "灯塔",
  "nameZ": "54348",
  "province": "辽宁",
  "state": "OK"
}, {
  "latitude": 41.3,
  "longitude": 124.28,
  "name": "本溪县",
  "nameZ": "54349",
  "province": "辽宁",
  "state": "OK"
}, {
  "latitude": 41.92,
  "longitude": 124.08,
  "name": "抚顺",
  "nameZ": "54351",
  "province": "辽宁",
  "state": "OK"
}, {
  "latitude": 41.73,
  "longitude": 125.05,
  "name": "新宾",
  "nameZ": "54353",
  "province": "辽宁",
  "state": "OK"
}, {
  "latitude": 41.67,
  "longitude": 125.75,
  "name": "通化县",
  "nameZ": "54362",
  "province": "吉林",
  "state": "OK"
}, {
  "latitude": 41.68,
  "longitude": 125.9,
  "name": "通化",
  "nameZ": "54363",
  "province": "吉林",
  "state": "OK"
}, {
  "latitude": 41.27,
  "longitude": 125.35,
  "name": "桓仁",
  "nameZ": "54365",
  "province": "辽宁",
  "state": "OK"
}, {
  "latitude": 41.93,
  "longitude": 126.92,
  "name": "白山",
  "nameZ": "54371",
  "province": "吉林",
  "state": "OK"
}, {
  "latitude": 41.8,
  "longitude": 126.92,
  "name": "临江",
  "nameZ": "54374",
  "province": "吉林",
  "state": "OK"
}, {
  "latitude": 41.15,
  "longitude": 126.15,
  "name": "集安",
  "nameZ": "54377",
  "province": "吉林",
  "state": "OK"
}, {
  "latitude": 41.42,
  "longitude": 128.17,
  "name": "长白",
  "nameZ": "54386",
  "province": "吉林",
  "state": "OK"
}, {
  "latitude": 40.12,
  "longitude": 116.63,
  "name": "顺义",
  "nameZ": "54398",
  "province": "北京",
  "state": "OK"
}, {
  "latitude": 39.98,
  "longitude": 116.28,
  "name": "海淀",
  "nameZ": "54399",
  "province": "北京",
  "state": "OK"
}, {
  "latitude": 40.78,
  "longitude": 114.88,
  "name": "张家口",
  "nameZ": "54401",
  "province": "河北",
  "state": "OK"
}, {
  "latitude": 40.9,
  "longitude": 115.83,
  "name": "赤城",
  "nameZ": "54404",
  "province": "河北",
  "state": "OK"
}, {
  "latitude": 40.42,
  "longitude": 115.5,
  "name": "怀来",
  "nameZ": "54405",
  "province": "河北",
  "state": "OK"
}, {
  "latitude": 40.45,
  "longitude": 115.97,
  "name": "延庆",
  "nameZ": "54406",
  "province": "北京",
  "state": "OK"
}, {
  "latitude": 40.38,
  "longitude": 115.22,
  "name": "涿鹿",
  "nameZ": "54408",
  "province": "河北",
  "state": "OK"
}, {
  "latitude": 40.35,
  "longitude": 116,
  "name": "八达岭野生动物世界(定位)",
  "nameZ": "54409",
  "province": "北京",
  "state": "OK"
}, {
  "latitude": 40.6,
  "longitude": 116.13,
  "name": "佛爷顶",
  "nameZ": "54410",
  "province": "北京",
  "state": "OK"
}, {
  "latitude": 40.73,
  "longitude": 116.63,
  "name": "汤河口",
  "nameZ": "54412",
  "province": "北京",
  "state": "OK"
}, {
  "latitude": 40.38,
  "longitude": 116.87,
  "name": "密云",
  "nameZ": "54416",
  "province": "北京",
  "state": "OK"
}, {
  "latitude": 40.32,
  "longitude": 116.63,
  "name": "怀柔",
  "nameZ": "54419",
  "province": "北京",
  "state": "OK"
}, {
  "latitude": 40.93,
  "longitude": 117.33,
  "name": "滦平",
  "nameZ": "54420",
  "province": "河北",
  "state": "OK"
}, {
  "latitude": 40.65,
  "longitude": 117.12,
  "name": "密云上甸子",
  "nameZ": "54421",
  "province": "北京",
  "state": "OK"
}, {
  "latitude": 41,
  "longitude": 117.95,
  "name": "承德市磬锤峰国家森林公园(定位)",
  "nameZ": "54422",
  "province": "河北",
  "state": "OK"
}, {
  "latitude": 40.97,
  "longitude": 117.93,
  "name": "承德",
  "nameZ": "54423",
  "province": "河北",
  "state": "OK"
}, {
  "latitude": 40.15,
  "longitude": 117.1,
  "name": "平谷",
  "nameZ": "54424",
  "province": "北京",
  "state": "OK"
}, {
  "latitude": 40.42,
  "longitude": 117.48,
  "name": "兴隆",
  "nameZ": "54425",
  "province": "河北",
  "state": "OK"
}, {
  "latitude": 40.03,
  "longitude": 117.4,
  "name": "蓟州",
  "nameZ": "54428",
  "province": "天津",
  "state": "OK"
}, {
  "latitude": 40.2,
  "longitude": 117.95,
  "name": "遵化",
  "nameZ": "54429",
  "province": "河北",
  "state": "OK"
}, {
  "latitude": 40.77,
  "longitude": 118.17,
  "name": "承德县",
  "nameZ": "54430",
  "province": "河北",
  "state": "OK"
}, {
  "latitude": 39.92,
  "longitude": 116.63,
  "name": "通州",
  "nameZ": "54431",
  "province": "北京",
  "state": "OK"
}, {
  "latitude": 40.6,
  "longitude": 118.48,
  "name": "宽城",
  "nameZ": "54432",
  "province": "河北",
  "state": "OK"
}, {
  "latitude": 39.95,
  "longitude": 116.48,
  "name": "朝阳",
  "nameZ": "54433",
  "province": "北京",
  "state": "OK"
}, {
  "latitude": 40.15,
  "longitude": 118.3,
  "name": "迁西",
  "nameZ": "54434",
  "province": "河北",
  "state": "OK"
}, {
  "latitude": 40.4,
  "longitude": 118.95,
  "name": "青龙",
  "nameZ": "54436",
  "province": "河北",
  "state": "OK"
}, {
  "latitude": 39.5,
  "longitude": 118.67,
  "name": "滦南",
  "nameZ": "54437",
  "province": "河北",
  "state": "OK"
}, {
  "latitude": 39.88,
  "longitude": 118.87,
  "name": "卢龙",
  "nameZ": "54438",
  "province": "河北",
  "state": "OK"
}, {
  "latitude": 40,
  "longitude": 118.72,
  "name": "迁安",
  "nameZ": "54439",
  "province": "河北",
  "state": "OK"
}, {
  "latitude": 39.93,
  "longitude": 119.6,
  "name": "秦皇岛",
  "nameZ": "54449",
  "province": "河北",
  "state": "OK"
}, {
  "latitude": 39.93,
  "longitude": 119.6,
  "name": "建昌",
  "nameZ": "54452",
  "province": "辽宁",
  "state": "OK"
}, {
  "latitude": 40.77,
  "longitude": 120.83,
  "name": "葫芦岛",
  "nameZ": "54453",
  "province": "辽宁",
  "state": "OK"
}, {
  "latitude": 40.35,
  "longitude": 120.35,
  "name": "绥中",
  "nameZ": "54454",
  "province": "辽宁",
  "state": "OK"
}, {
  "latitude": 40.58,
  "longitude": 120.7,
  "name": "兴城",
  "nameZ": "54455",
  "province": "辽宁",
  "state": "OK"
}, {
  "latitude": 40.98,
  "longitude": 122.07,
  "name": "盘锦",
  "nameZ": "54470",
  "province": "辽宁",
  "state": "OK"
}, {
  "latitude": 40.67,
  "longitude": 122.27,
  "name": "营口",
  "nameZ": "54471",
  "province": "辽宁",
  "state": "OK"
}, {
  "latitude": 40.88,
  "longitude": 122.72,
  "name": "海城",
  "nameZ": "54472",
  "province": "辽宁",
  "state": "OK"
}, {
  "latitude": 40.42,
  "longitude": 122.35,
  "name": "盖州",
  "nameZ": "54474",
  "province": "辽宁",
  "state": "OK"
}, {
  "latitude": 40.62,
  "longitude": 122.48,
  "name": "大石桥",
  "nameZ": "54475",
  "province": "辽宁",
  "state": "OK"
}, {
  "latitude": 40.17,
  "longitude": 122.15,
  "name": "鲅鱼圈",
  "nameZ": "54476",
  "province": "辽宁",
  "state": "OK"
}, {
  "latitude": 40.88,
  "longitude": 123.9,
  "name": "草河口",
  "nameZ": "54483",
  "province": "辽宁",
  "state": "OK"
}, {
  "latitude": 40.28,
  "longitude": 123.28,
  "name": "岫岩",
  "nameZ": "54486",
  "province": "辽宁",
  "state": "OK"
}, {
  "latitude": 40.72,
  "longitude": 124.78,
  "name": "朝阳",
  "nameZ": "54493",
  "province": "辽宁",
  "state": "OK"
}, {
  "latitude": 40.47,
  "longitude": 124.07,
  "name": "熊岳",
  "nameZ": "54494",
  "province": "辽宁",
  "state": "OK"
}, {
  "latitude": 40.05,
  "longitude": 124.33,
  "name": "草河口",
  "nameZ": "54497",
  "province": "辽宁",
  "state": "OK"
}, {
  "latitude": 40.05,
  "longitude": 124.33,
  "name": "昌平",
  "nameZ": "54499",
  "province": "北京",
  "state": "OK"
}, {
  "latitude": 39.97,
  "longitude": 115.68,
  "name": "斋堂",
  "nameZ": "54501",
  "province": "北京",
  "state": "OK"
}, {
  "latitude": 39.48,
  "longitude": 115.97,
  "name": "涿州",
  "nameZ": "54502",
  "province": "河北",
  "state": "OK"
}, {
  "latitude": 39.05,
  "longitude": 115.85,
  "name": "容城",
  "nameZ": "54503",
  "province": "河北",
  "state": "OK"
}, {
  "latitude": 39.43,
  "longitude": 115.17,
  "name": "紫荆关",
  "nameZ": "54504",
  "province": "河北",
  "state": "OK"
}, {
  "latitude": 39.92,
  "longitude": 116.12,
  "name": "门头沟",
  "nameZ": "54505",
  "province": "北京",
  "state": "OK"
}, {
  "latitude": 39.33,
  "longitude": 115.85,
  "name": "高碑店",
  "nameZ": "54506",
  "province": "河北",
  "state": "OK"
}, {
  "latitude": 39.35,
  "longitude": 115.5,
  "name": "易县",
  "nameZ": "54507",
  "province": "河北",
  "state": "OK"
}, {
  "latitude": 39.38,
  "longitude": 115.7,
  "name": "保定市涞水县涞水镇北郭下村(定位)",
  "nameZ": "54508",
  "province": "河北",
  "state": "OK"
}, {
  "latitude": 39.88,
  "longitude": 116.98,
  "name": "大厂",
  "nameZ": "54510",
  "province": "河北",
  "state": "OK"
}, {
  "latitude": 39.93,
  "longitude": 116.28,
  "name": "北京",
  "nameZ": "54511",
  "province": "北京",
  "state": "OK"
}, {
  "latitude": 39.43,
  "longitude": 116.28,
  "name": "固安",
  "nameZ": "54512",
  "province": "河北",
  "state": "OK"
}, {
  "latitude": 39.93,
  "longitude": 116.18,
  "name": "石景山",
  "nameZ": "54513",
  "province": "北京",
  "state": "OK"
}, {
  "latitude": 39.87,
  "longitude": 116.25,
  "name": "丰台",
  "nameZ": "54514",
  "province": "北京",
  "state": "OK"
},